{"type":"FeatureCollection","features":[{"geometry":{"coordinates":[19.699024,48.669026],"type":"Point"},"id":3186,"type":"Feature","properties":{"UID":3186,"Latitude":48.669026,"Longitude":19.699024,"Link":"http://2015.drupalcamp.at/user/3186","Display name":"Radoslav Terezka"}},{"geometry":{"coordinates":[-3.435973,55.378051],"type":"Point"},"id":3161,"type":"Feature","properties":{"UID":3161,"Latitude":55.378051,"Longitude":-3.435973,"Link":"http://2015.drupalcamp.at/user/3161","Display name":"Jenny Wong"}},{"geometry":{"coordinates":[16.4304635,48.2533266],"type":"Point"},"id":3156,"type":"Feature","properties":{"UID":3156,"Latitude":48.2533266,"Longitude":16.4304635,"Link":"http://2015.drupalcamp.at/user/3156","Display name":"Dejan Ivkovic"}},{"geometry":{"coordinates":[19.040235,47.497912],"type":"Point"},"id":3151,"type":"Feature","properties":{"UID":3151,"Latitude":47.497912,"Longitude":19.040235,"Link":"http://2015.drupalcamp.at/user/3151","Display name":"Andras Czövek"}},{"geometry":{"coordinates":[11.5430756,48.1518224],"type":"Point"},"id":3146,"type":"Feature","properties":{"UID":3146,"Latitude":48.1518224,"Longitude":11.5430756,"Link":"http://2015.drupalcamp.at/user/3146","Display name":"Susanne Böck"}},{"geometry":{"coordinates":[10.451526,51.165691],"type":"Point"},"id":3141,"type":"Feature","properties":{"UID":3141,"Latitude":51.165691,"Longitude":10.451526,"Link":"http://2015.drupalcamp.at/user/3141","Display name":"Dirk Schmidt"}},{"geometry":{"coordinates":[15.8847136,45.7995507],"type":"Point"},"id":3136,"type":"Feature","properties":{"UID":3136,"Latitude":45.7995507,"Longitude":15.8847136,"Link":"http://2015.drupalcamp.at/user/3136","Display name":"Marija Lukačin"}},{"geometry":{"coordinates":[21.005859,44.016521],"type":"Point"},"id":3126,"type":"Feature","properties":{"UID":3126,"Latitude":44.016521,"Longitude":21.005859,"Link":"http://2015.drupalcamp.at/user/3126","Display name":"Suncica Milosev"}},{"geometry":{"coordinates":[21.005859,44.016521],"type":"Point"},"id":3121,"type":"Feature","properties":{"UID":3121,"Latitude":44.016521,"Longitude":21.005859,"Link":"http://2015.drupalcamp.at/user/3121","Display name":"Bojan Zivkov"}},{"geometry":{"coordinates":[14.1372131,46.4009094],"type":"Point"},"id":3106,"type":"Feature","properties":{"UID":3106,"Latitude":46.4009094,"Longitude":14.1372131,"Link":"http://2015.drupalcamp.at/user/3106","Display name":"Domen Ramus"}},{"geometry":{"coordinates":[6.7507247,51.1997076],"type":"Point"},"id":3101,"type":"Feature","properties":{"UID":3101,"Latitude":51.1997076,"Longitude":6.7507247,"Link":"http://2015.drupalcamp.at/user/3101","Display name":"David Aksoy"}},{"geometry":{"coordinates":[6.7507247,51.1997076],"type":"Point"},"id":3096,"type":"Feature","properties":{"UID":3096,"Latitude":51.1997076,"Longitude":6.7507247,"Link":"http://2015.drupalcamp.at/user/3096","Display name":"Dirk Ziegener"}},{"geometry":{"coordinates":[14.995463,46.151241],"type":"Point"},"id":3091,"type":"Feature","properties":{"UID":3091,"Latitude":46.151241,"Longitude":14.995463,"Link":"http://2015.drupalcamp.at/user/3091","Display name":"Adrijan Bradaschia"}},{"geometry":{"coordinates":[16.2831064,48.2199409],"type":"Point"},"id":3086,"type":"Feature","properties":{"UID":3086,"Latitude":48.2199409,"Longitude":16.2831064,"Link":"http://2015.drupalcamp.at/user/3086","Display name":"Hugo Negrelli"}},{"geometry":{"coordinates":[4.9043535,51.1358837999999],"type":"Point"},"id":3081,"type":"Feature","properties":{"UID":3081,"Latitude":51.1358837999999,"Longitude":4.9043535,"Link":"http://2015.drupalcamp.at/user/3081","Display name":"Roel De Leender"}},{"geometry":{"coordinates":[4.9043535,51.1358837999999],"type":"Point"},"id":3076,"type":"Feature","properties":{"UID":3076,"Latitude":51.1358837999999,"Longitude":4.9043535,"Link":"http://2015.drupalcamp.at/user/3076","Display name":"Adriaan Meuris"}},{"geometry":{"coordinates":[4.7708827,51.2025247],"type":"Point"},"id":3071,"type":"Feature","properties":{"UID":3071,"Latitude":51.2025247,"Longitude":4.7708827,"Link":"http://2015.drupalcamp.at/user/3071","Display name":"Jimmy Henderickx"}},{"geometry":{"coordinates":[14.550072,47.516231],"type":"Point"},"id":3066,"type":"Feature","properties":{"UID":3066,"Latitude":47.516231,"Longitude":14.550072,"Link":"http://2015.drupalcamp.at/user/3066","Display name":"Martin Ferstl"}},{"geometry":{"coordinates":[16.3318914,48.2379866],"type":"Point"},"id":3056,"type":"Feature","properties":{"UID":3056,"Latitude":48.2379866,"Longitude":16.3318914,"Link":"http://2015.drupalcamp.at/user/3056","Display name":"Claudius Müller"}},{"geometry":{"coordinates":[16.2831064,48.2199409],"type":"Point"},"id":3051,"type":"Feature","properties":{"UID":3051,"Latitude":48.2199409,"Longitude":16.2831064,"Link":"http://2015.drupalcamp.at/user/3051","Display name":"Jakob Weixlbaumer"}},{"geometry":{"coordinates":[14.550072,47.516231],"type":"Point"},"id":3046,"type":"Feature","properties":{"UID":3046,"Latitude":47.516231,"Longitude":14.550072,"Link":"http://2015.drupalcamp.at/user/3046","Display name":"David Peherstorfer"}},{"geometry":{"coordinates":[14.5152496,46.058708],"type":"Point"},"id":3041,"type":"Feature","properties":{"UID":3041,"Latitude":46.058708,"Longitude":14.5152496,"Link":"http://2015.drupalcamp.at/user/3041","Display name":"Cedric Perronnet"}},{"geometry":{"coordinates":[14.550072,47.516231],"type":"Point"},"id":3036,"type":"Feature","properties":{"UID":3036,"Latitude":47.516231,"Longitude":14.550072,"Link":"http://2015.drupalcamp.at/user/3036","Display name":"Thomas Kräftner"}},{"geometry":{"coordinates":[16.2145975,48.2088091],"type":"Point"},"id":3031,"type":"Feature","properties":{"UID":3031,"Latitude":48.2088091,"Longitude":16.2145975,"Link":"http://2015.drupalcamp.at/user/3031","Display name":"Ovi Indrei"}},{"geometry":{"coordinates":[14.324326,46.6499635],"type":"Point"},"id":3026,"type":"Feature","properties":{"UID":3026,"Latitude":46.6499635,"Longitude":14.324326,"Link":"http://2015.drupalcamp.at/user/3026","Display name":"Bernd Buchegger"}},{"geometry":{"coordinates":[14.550072,47.516231],"type":"Point"},"id":3016,"type":"Feature","properties":{"UID":3016,"Latitude":47.516231,"Longitude":14.550072,"Link":"http://2015.drupalcamp.at/user/3016","Display name":"l Rosenstrauch"}},{"geometry":{"coordinates":[21.005859,44.016521],"type":"Point"},"id":3011,"type":"Feature","properties":{"UID":3011,"Latitude":44.016521,"Longitude":21.005859,"Link":"http://2015.drupalcamp.at/user/3011","Display name":"Ivan Buišić"}},{"geometry":{"coordinates":[21.2565024,45.7328812],"type":"Point"},"id":3006,"type":"Feature","properties":{"UID":3006,"Latitude":45.7328812,"Longitude":21.2565024,"Link":"http://2015.drupalcamp.at/user/3006","Display name":"Bogdan Racz"}},{"geometry":{"coordinates":[14.3178004,46.1675279],"type":"Point"},"id":3001,"type":"Feature","properties":{"UID":3001,"Latitude":46.1675279,"Longitude":14.3178004,"Link":"http://2015.drupalcamp.at/user/3001","Display name":"Bostjan Kovac"}},{"geometry":{"coordinates":[20.6310475,44.9013545],"type":"Point"},"id":2986,"type":"Feature","properties":{"UID":2986,"Latitude":44.9013545,"Longitude":20.6310475,"Link":"http://2015.drupalcamp.at/user/2986","Display name":"Branislav Bujisic"}},{"geometry":{"coordinates":[21.005859,44.016521],"type":"Point"},"id":2981,"type":"Feature","properties":{"UID":2981,"Latitude":44.016521,"Longitude":21.005859,"Link":"http://2015.drupalcamp.at/user/2981","Display name":"Petar Gnjidic"}},{"geometry":{"coordinates":[19.8335496,45.2671352],"type":"Point"},"id":2976,"type":"Feature","properties":{"UID":2976,"Latitude":45.2671352,"Longitude":19.8335496,"Link":"http://2015.drupalcamp.at/user/2976","Display name":"Mladen Stankovic"}},{"geometry":{"coordinates":[15.472962,49.8174919999999],"type":"Point"},"id":2966,"type":"Feature","properties":{"UID":2966,"Latitude":49.8174919999999,"Longitude":15.472962,"Link":"http://2015.drupalcamp.at/user/2966","Display name":"Martin Kolar"}},{"geometry":{"coordinates":[16.4295803,48.2541620999999],"type":"Point"},"id":2961,"type":"Feature","properties":{"UID":2961,"Latitude":48.2541620999999,"Longitude":16.4295803,"Link":"http://2015.drupalcamp.at/user/2961","Display name":"Gregor Kralik"}},{"geometry":{"coordinates":[10.451526,51.165691],"type":"Point"},"id":2951,"type":"Feature","properties":{"UID":2951,"Latitude":51.165691,"Longitude":10.451526,"Link":"http://2015.drupalcamp.at/user/2951","Display name":"Marvin Butkereit"}},{"geometry":{"coordinates":[15.472962,49.8174919999999],"type":"Point"},"id":2946,"type":"Feature","properties":{"UID":2946,"Latitude":49.8174919999999,"Longitude":15.472962,"Link":"http://2015.drupalcamp.at/user/2946","Display name":"Vit Hovezak"}},{"geometry":{"coordinates":[27.6910033,53.9346334],"type":"Point"},"id":2941,"type":"Feature","properties":{"UID":2941,"Latitude":53.9346334,"Longitude":27.6910033,"Link":"http://2015.drupalcamp.at/user/2941","Display name":"Igor Kandyba"}},{"geometry":{"coordinates":[8.734898,47.4971910999999],"type":"Point"},"id":2936,"type":"Feature","properties":{"UID":2936,"Latitude":47.4971910999999,"Longitude":8.734898,"Link":"http://2015.drupalcamp.at/user/2936","Display name":"Patrick Jezek"}},{"geometry":{"coordinates":[6.5882884,46.537159],"type":"Point"},"id":2931,"type":"Feature","properties":{"UID":2931,"Latitude":46.537159,"Longitude":6.5882884,"Link":"http://2015.drupalcamp.at/user/2931","Display name":"Matteo Loretan"}},{"geometry":{"coordinates":[13.5969835,45.5147684],"type":"Point"},"id":2911,"type":"Feature","properties":{"UID":2911,"Latitude":45.5147684,"Longitude":13.5969835,"Link":"http://2015.drupalcamp.at/user/2911","Display name":"Alec Smrekar"}},{"geometry":{"coordinates":[2.359204,48.830759],"type":"Point"},"id":2871,"type":"Feature","properties":{"UID":2871,"Latitude":48.830759,"Longitude":2.359204,"Link":"http://2015.drupalcamp.at/user/2871","Display name":"Clement Pineau"}},{"geometry":{"coordinates":[2.359204,48.830759],"type":"Point"},"id":2856,"type":"Feature","properties":{"UID":2856,"Latitude":48.830759,"Longitude":2.359204,"Link":"http://2015.drupalcamp.at/user/2856","Display name":"Sylvain Moreau"}},{"geometry":{"coordinates":[30.512322,50.588339],"type":"Point"},"id":2851,"type":"Feature","properties":{"UID":2851,"Latitude":50.588339,"Longitude":30.512322,"Link":"http://2015.drupalcamp.at/user/2851","Display name":"Olena Pustovoit"}},{"geometry":{"coordinates":[30.5234,50.4501],"type":"Point"},"id":2846,"type":"Feature","properties":{"UID":2846,"Latitude":50.4501,"Longitude":30.5234,"Link":"http://2015.drupalcamp.at/user/2846","Display name":"Oleksandr Barkov"}},{"geometry":{"coordinates":[33.6203516,34.8723402],"type":"Point"},"id":2841,"type":"Feature","properties":{"UID":2841,"Latitude":34.8723402,"Longitude":33.6203516,"Link":"http://2015.drupalcamp.at/user/2841","Display name":"Yiota Pingou"}},{"geometry":{"coordinates":[33.6203516,34.8723402],"type":"Point"},"id":2836,"type":"Feature","properties":{"UID":2836,"Latitude":34.8723402,"Longitude":33.6203516,"Link":"http://2015.drupalcamp.at/user/2836","Display name":"Stefano Sordini"}},{"geometry":{"coordinates":[14.550072,47.516231],"type":"Point"},"id":2831,"type":"Feature","properties":{"UID":2831,"Latitude":47.516231,"Longitude":14.550072,"Link":"http://2015.drupalcamp.at/user/2831","Display name":"Stefan Hageneder"}},{"geometry":{"coordinates":[14.5152496,46.058708],"type":"Point"},"id":2766,"type":"Feature","properties":{"UID":2766,"Latitude":46.058708,"Longitude":14.5152496,"Link":"http://2015.drupalcamp.at/user/2766","Display name":"Igor Čurk"}},{"geometry":{"coordinates":[16.4504452,48.1933523],"type":"Point"},"id":2761,"type":"Feature","properties":{"UID":2761,"Latitude":48.1933523,"Longitude":16.4504452,"Link":"http://2015.drupalcamp.at/user/2761","Display name":"Robert Fally"}},{"geometry":{"coordinates":[14.995463,46.151241],"type":"Point"},"id":2756,"type":"Feature","properties":{"UID":2756,"Latitude":46.151241,"Longitude":14.995463,"Link":"http://2015.drupalcamp.at/user/2756","Display name":"Marko Bahor"}},{"geometry":{"coordinates":[8.51451799999999,47.392784],"type":"Point"},"id":2751,"type":"Feature","properties":{"UID":2751,"Latitude":47.392784,"Longitude":8.51451799999999,"Link":"http://2015.drupalcamp.at/user/2751","Display name":"Karin Christen"}},{"geometry":{"coordinates":[13.4411785,52.5239492],"type":"Point"},"id":2741,"type":"Feature","properties":{"UID":2741,"Latitude":52.5239492,"Longitude":13.4411785,"Link":"http://2015.drupalcamp.at/user/2741","Display name":"Benedikt Rötsch"}},{"geometry":{"coordinates":[10.451526,51.165691],"type":"Point"},"id":2736,"type":"Feature","properties":{"UID":2736,"Latitude":51.165691,"Longitude":10.451526,"Link":"http://2015.drupalcamp.at/user/2736","Display name":"Yannick Leyendecker"}},{"geometry":{"coordinates":[16.4504452,48.1933523],"type":"Point"},"id":2731,"type":"Feature","properties":{"UID":2731,"Latitude":48.1933523,"Longitude":16.4504452,"Link":"http://2015.drupalcamp.at/user/2731","Display name":"André Höschele"}},{"geometry":{"coordinates":[14.550072,47.516231],"type":"Point"},"id":2726,"type":"Feature","properties":{"UID":2726,"Latitude":47.516231,"Longitude":14.550072,"Link":"http://2015.drupalcamp.at/user/2726","Display name":"Stefan Vietze"}},{"geometry":{"coordinates":[14.550072,47.516231],"type":"Point"},"id":2721,"type":"Feature","properties":{"UID":2721,"Latitude":47.516231,"Longitude":14.550072,"Link":"http://2015.drupalcamp.at/user/2721","Display name":"Johannes Grünauer"}},{"geometry":{"coordinates":[17.1071373,48.1458923],"type":"Point"},"id":2716,"type":"Feature","properties":{"UID":2716,"Latitude":48.1458923,"Longitude":17.1071373,"Link":"http://2015.drupalcamp.at/user/2716","Display name":"Matúš Fekete"}},{"geometry":{"coordinates":[17.1071373,48.1458923],"type":"Point"},"id":2711,"type":"Feature","properties":{"UID":2711,"Latitude":48.1458923,"Longitude":17.1071373,"Link":"http://2015.drupalcamp.at/user/2711","Display name":"Ondrej Fekete"}},{"geometry":{"coordinates":[14.4378005,50.0755381],"type":"Point"},"id":2706,"type":"Feature","properties":{"UID":2706,"Latitude":50.0755381,"Longitude":14.4378005,"Link":"http://2015.drupalcamp.at/user/2706","Display name":"Rastsislau Liaukovich"}},{"geometry":{"coordinates":[14.550072,47.516231],"type":"Point"},"id":2701,"type":"Feature","properties":{"UID":2701,"Latitude":47.516231,"Longitude":14.550072,"Link":"http://2015.drupalcamp.at/user/2701","Display name":"Bernhard Benke"}},{"geometry":{"coordinates":[16.3780545,48.2393243],"type":"Point"},"id":2696,"type":"Feature","properties":{"UID":2696,"Latitude":48.2393243,"Longitude":16.3780545,"Link":"http://2015.drupalcamp.at/user/2696","Display name":"Alex Kirk"}},{"geometry":{"coordinates":[16.3358371,48.1625026],"type":"Point"},"id":2691,"type":"Feature","properties":{"UID":2691,"Latitude":48.1625026,"Longitude":16.3358371,"Link":"http://2015.drupalcamp.at/user/2691","Display name":"Stefan Kamsker"}},{"geometry":{"coordinates":[14.550072,47.516231],"type":"Point"},"id":2686,"type":"Feature","properties":{"UID":2686,"Latitude":47.516231,"Longitude":14.550072,"Link":"http://2015.drupalcamp.at/user/2686","Display name":"Carmen Fröwis"}},{"geometry":{"coordinates":[14.4378005,50.0755381],"type":"Point"},"id":2681,"type":"Feature","properties":{"UID":2681,"Latitude":50.0755381,"Longitude":14.4378005,"Link":"http://2015.drupalcamp.at/user/2681","Display name":"Mojzis Stupka"}},{"geometry":{"coordinates":[-0.5825359,39.8358769],"type":"Point"},"id":2676,"type":"Feature","properties":{"UID":2676,"Latitude":39.8358769,"Longitude":-0.5825359,"Link":"http://2015.drupalcamp.at/user/2676","Display name":"Nacho Lozano"}},{"geometry":{"coordinates":[15.472962,49.8174919999999],"type":"Point"},"id":2671,"type":"Feature","properties":{"UID":2671,"Latitude":49.8174919999999,"Longitude":15.472962,"Link":"http://2015.drupalcamp.at/user/2671","Display name":"Dávid Urbančok"}},{"geometry":{"coordinates":[10.451526,51.165691],"type":"Point"},"id":2666,"type":"Feature","properties":{"UID":2666,"Latitude":51.165691,"Longitude":10.451526,"Link":"http://2015.drupalcamp.at/user/2666","Display name":"Jennifer Lehr"}},{"geometry":{"coordinates":[2.213749,46.227638],"type":"Point"},"id":2661,"type":"Feature","properties":{"UID":2661,"Latitude":46.227638,"Longitude":2.213749,"Link":"http://2015.drupalcamp.at/user/2661","Display name":"Renaud CUNY"}},{"geometry":{"coordinates":[19.7967491,45.2455907],"type":"Point"},"id":2656,"type":"Feature","properties":{"UID":2656,"Latitude":45.2455907,"Longitude":19.7967491,"Link":"http://2015.drupalcamp.at/user/2656","Display name":"Aleksandar Pekeč"}},{"geometry":{"coordinates":[19.7967491,45.2455907],"type":"Point"},"id":2651,"type":"Feature","properties":{"UID":2651,"Latitude":45.2455907,"Longitude":19.7967491,"Link":"http://2015.drupalcamp.at/user/2651","Display name":"Vladimir Zdravkovic"}},{"geometry":{"coordinates":[19.7967491,45.2455907],"type":"Point"},"id":2646,"type":"Feature","properties":{"UID":2646,"Latitude":45.2455907,"Longitude":19.7967491,"Link":"http://2015.drupalcamp.at/user/2646","Display name":"Nenad Jelavić"}},{"geometry":{"coordinates":[19.7967491,45.2455907],"type":"Point"},"id":2641,"type":"Feature","properties":{"UID":2641,"Latitude":45.2455907,"Longitude":19.7967491,"Link":"http://2015.drupalcamp.at/user/2641","Display name":"Dejan Dudukovic"}},{"geometry":{"coordinates":[4.469936,50.503887],"type":"Point"},"id":2636,"type":"Feature","properties":{"UID":2636,"Latitude":50.503887,"Longitude":4.469936,"Link":"http://2015.drupalcamp.at/user/2636","Display name":"Pedro Teles"}},{"geometry":{"coordinates":[19.7967491,45.2455907],"type":"Point"},"id":2631,"type":"Feature","properties":{"UID":2631,"Latitude":45.2455907,"Longitude":19.7967491,"Link":"http://2015.drupalcamp.at/user/2631","Display name":"Dejan Aleksic"}},{"geometry":{"coordinates":[6.60561059999999,46.5171129999999],"type":"Point"},"id":2621,"type":"Feature","properties":{"UID":2621,"Latitude":46.5171129999999,"Longitude":6.60561059999999,"Link":"http://2015.drupalcamp.at/user/2621","Display name":"Leïla Mahi"}},{"geometry":{"coordinates":[11.7750279,48.3536621],"type":"Point"},"id":2616,"type":"Feature","properties":{"UID":2616,"Latitude":48.3536621,"Longitude":11.7750279,"Link":"http://2015.drupalcamp.at/user/2616","Display name":"Martin Mayer"}},{"geometry":{"coordinates":[16.1165058,50.6102583],"type":"Point"},"id":2611,"type":"Feature","properties":{"UID":2611,"Latitude":50.6102583,"Longitude":16.1165058,"Link":"http://2015.drupalcamp.at/user/2611","Display name":"Jan Pára"}},{"geometry":{"coordinates":[14.4458729,50.0984708],"type":"Point"},"id":2606,"type":"Feature","properties":{"UID":2606,"Latitude":50.0984708,"Longitude":14.4458729,"Link":"http://2015.drupalcamp.at/user/2606","Display name":"Petr Janda"}},{"geometry":{"coordinates":[12.3722439,50.1989696],"type":"Point"},"id":2601,"type":"Feature","properties":{"UID":2601,"Latitude":50.1989696,"Longitude":12.3722439,"Link":"http://2015.drupalcamp.at/user/2601","Display name":"Petr Illek"}},{"geometry":{"coordinates":[17.1071373,48.1458923],"type":"Point"},"id":2596,"type":"Feature","properties":{"UID":2596,"Latitude":48.1458923,"Longitude":17.1071373,"Link":"http://2015.drupalcamp.at/user/2596","Display name":"Ivan Jaros"}},{"geometry":{"coordinates":[14.5152496,46.058708],"type":"Point"},"id":2591,"type":"Feature","properties":{"UID":2591,"Latitude":46.058708,"Longitude":14.5152496,"Link":"http://2015.drupalcamp.at/user/2591","Display name":"Žan Vidmar"}},{"geometry":{"coordinates":[14.550072,47.516231],"type":"Point"},"id":2586,"type":"Feature","properties":{"UID":2586,"Latitude":47.516231,"Longitude":14.550072,"Link":"http://2015.drupalcamp.at/user/2586","Display name":"Gottfried Nindl"}},{"geometry":{"coordinates":[9.7062518,52.3749948],"type":"Point"},"id":2581,"type":"Feature","properties":{"UID":2581,"Latitude":52.3749948,"Longitude":9.7062518,"Link":"http://2015.drupalcamp.at/user/2581","Display name":"Karsten Bruch"}},{"geometry":{"coordinates":[16.3738189,48.2081743],"type":"Point"},"id":2576,"type":"Feature","properties":{"UID":2576,"Latitude":48.2081743,"Longitude":16.3738189,"Link":"http://2015.drupalcamp.at/user/2576","Display name":"alexander sulz"}},{"geometry":{"coordinates":[16.3760817,48.1851249],"type":"Point"},"id":2571,"type":"Feature","properties":{"UID":2571,"Latitude":48.1851249,"Longitude":16.3760817,"Link":"http://2015.drupalcamp.at/user/2571","Display name":"Karl Schwaier"}},{"geometry":{"coordinates":[19.145136,51.919438],"type":"Point"},"id":2566,"type":"Feature","properties":{"UID":2566,"Latitude":51.919438,"Longitude":19.145136,"Link":"http://2015.drupalcamp.at/user/2566","Display name":"Roland Jekel"}},{"geometry":{"coordinates":[8.68058209999999,50.1153944],"type":"Point"},"id":2551,"type":"Feature","properties":{"UID":2551,"Latitude":50.1153944,"Longitude":8.68058209999999,"Link":"http://2015.drupalcamp.at/user/2551","Display name":"Carsten Logemann"}},{"geometry":{"coordinates":[14.8338549,47.2137667],"type":"Point"},"id":2546,"type":"Feature","properties":{"UID":2546,"Latitude":47.2137667,"Longitude":14.8338549,"Link":"http://2015.drupalcamp.at/user/2546","Display name":"Eberhard Lauth"}},{"geometry":{"coordinates":[31.16558,48.379433],"type":"Point"},"id":2541,"type":"Feature","properties":{"UID":2541,"Latitude":48.379433,"Longitude":31.16558,"Link":"http://2015.drupalcamp.at/user/2541","Display name":"Vladyslava Palchenko"}},{"geometry":{"coordinates":[15.8847136,45.7995507],"type":"Point"},"id":2536,"type":"Feature","properties":{"UID":2536,"Latitude":45.7995507,"Longitude":15.8847136,"Link":"http://2015.drupalcamp.at/user/2536","Display name":"Damir Miric"}},{"geometry":{"coordinates":[4.9006149,52.3710202],"type":"Point"},"id":2531,"type":"Feature","properties":{"UID":2531,"Latitude":52.3710202,"Longitude":4.9006149,"Link":"http://2015.drupalcamp.at/user/2531","Display name":"Mike Wong"}},{"geometry":{"coordinates":[4.9006149,52.3710202],"type":"Point"},"id":2526,"type":"Feature","properties":{"UID":2526,"Latitude":52.3710202,"Longitude":4.9006149,"Link":"http://2015.drupalcamp.at/user/2526","Display name":"Max Nedelcu"}},{"geometry":{"coordinates":[19.7967491,45.2455907],"type":"Point"},"id":2521,"type":"Feature","properties":{"UID":2521,"Latitude":45.2455907,"Longitude":19.7967491,"Link":"http://2015.drupalcamp.at/user/2521","Display name":"Ratomir Vasiljevic"}},{"geometry":{"coordinates":[20.084999,46.245949],"type":"Point"},"id":2516,"type":"Feature","properties":{"UID":2516,"Latitude":46.245949,"Longitude":20.084999,"Link":"http://2015.drupalcamp.at/user/2516","Display name":"Balázs Wittmann"}},{"geometry":{"coordinates":[-0.2656636,51.4043252],"type":"Point"},"id":2511,"type":"Feature","properties":{"UID":2511,"Latitude":51.4043252,"Longitude":-0.2656636,"Link":"http://2015.drupalcamp.at/user/2511","Display name":"Alex Pott"}},{"geometry":{"coordinates":[14.550072,47.516231],"type":"Point"},"id":2506,"type":"Feature","properties":{"UID":2506,"Latitude":47.516231,"Longitude":14.550072,"Link":"http://2015.drupalcamp.at/user/2506","Display name":"Roland Ulbricht"}},{"geometry":{"coordinates":[7.011142,51.4384291],"type":"Point"},"id":2501,"type":"Feature","properties":{"UID":2501,"Latitude":51.4384291,"Longitude":7.011142,"Link":"http://2015.drupalcamp.at/user/2501","Display name":"Tobias Stöckler"}},{"geometry":{"coordinates":[7.011142,51.4384291],"type":"Point"},"id":2496,"type":"Feature","properties":{"UID":2496,"Latitude":51.4384291,"Longitude":7.011142,"Link":"http://2015.drupalcamp.at/user/2496","Display name":"Jan Stöckler"}},{"geometry":{"coordinates":[19.040235,47.497912],"type":"Point"},"id":2486,"type":"Feature","properties":{"UID":2486,"Latitude":47.497912,"Longitude":19.040235,"Link":"http://2015.drupalcamp.at/user/2486","Display name":"Liubov Frolova"}},{"geometry":{"coordinates":[21.005859,44.016521],"type":"Point"},"id":2481,"type":"Feature","properties":{"UID":2481,"Latitude":44.016521,"Longitude":21.005859,"Link":"http://2015.drupalcamp.at/user/2481","Display name":"Strahinja Miljanovic"}},{"geometry":{"coordinates":[14.5152496,46.058708],"type":"Point"},"id":2471,"type":"Feature","properties":{"UID":2471,"Latitude":46.058708,"Longitude":14.5152496,"Link":"http://2015.drupalcamp.at/user/2471","Display name":"Iztok Smolic"}},{"geometry":{"coordinates":[12.4963655,41.9027835],"type":"Point"},"id":2466,"type":"Feature","properties":{"UID":2466,"Latitude":41.9027835,"Longitude":12.4963655,"Link":"http://2015.drupalcamp.at/user/2466","Display name":"Davide Ferrante"}},{"geometry":{"coordinates":[19.699024,48.669026],"type":"Point"},"id":2456,"type":"Feature","properties":{"UID":2456,"Latitude":48.669026,"Longitude":19.699024,"Link":"http://2015.drupalcamp.at/user/2456","Display name":"Peter Pokrivcak"}},{"geometry":{"coordinates":[18.4072861,43.8796636999999],"type":"Point"},"id":2446,"type":"Feature","properties":{"UID":2446,"Latitude":43.8796636999999,"Longitude":18.4072861,"Link":"http://2015.drupalcamp.at/user/2446","Display name":"Haris Ferizović"}},{"geometry":{"coordinates":[18.4072861,43.8796636999999],"type":"Point"},"id":2441,"type":"Feature","properties":{"UID":2441,"Latitude":43.8796636999999,"Longitude":18.4072861,"Link":"http://2015.drupalcamp.at/user/2441","Display name":"Emir Ferizovic"}},{"geometry":{"coordinates":[16.3388962,48.201466],"type":"Point"},"id":2436,"type":"Feature","properties":{"UID":2436,"Latitude":48.201466,"Longitude":16.3388962,"Link":"http://2015.drupalcamp.at/user/2436","Display name":"Doris Brady"}},{"geometry":{"coordinates":[4.3855128,50.875623],"type":"Point"},"id":2431,"type":"Feature","properties":{"UID":2431,"Latitude":50.875623,"Longitude":4.3855128,"Link":"http://2015.drupalcamp.at/user/2431","Display name":"Kalin Chernev"}},{"geometry":{"coordinates":[-119.4179324,36.778261],"type":"Point"},"id":2426,"type":"Feature","properties":{"UID":2426,"Latitude":36.778261,"Longitude":-119.4179324,"Link":"http://2015.drupalcamp.at/user/2426","Display name":"Marcos Tzannes"}},{"geometry":{"coordinates":[11.8646288,57.7779536],"type":"Point"},"id":2421,"type":"Feature","properties":{"UID":2421,"Latitude":57.7779536,"Longitude":11.8646288,"Link":"http://2015.drupalcamp.at/user/2421","Display name":"Arild Matsson"}},{"geometry":{"coordinates":[16.3671604,48.1988391],"type":"Point"},"id":2416,"type":"Feature","properties":{"UID":2416,"Latitude":48.1988391,"Longitude":16.3671604,"Link":"http://2015.drupalcamp.at/user/2416","Display name":"Sabrina Hanneman"}},{"geometry":{"coordinates":[-2.6983868,43.2204286],"type":"Point"},"id":2411,"type":"Feature","properties":{"UID":2411,"Latitude":43.2204286,"Longitude":-2.6983868,"Link":"http://2015.drupalcamp.at/user/2411","Display name":"Imanol Eguskiza"}},{"geometry":{"coordinates":[13.7895067,45.5714151],"type":"Point"},"id":2406,"type":"Feature","properties":{"UID":2406,"Latitude":45.5714151,"Longitude":13.7895067,"Link":"http://2015.drupalcamp.at/user/2406","Display name":"Saša Nikolić"}},{"geometry":{"coordinates":[20.4165646,44.8315142999999],"type":"Point"},"id":2401,"type":"Feature","properties":{"UID":2401,"Latitude":44.8315142999999,"Longitude":20.4165646,"Link":"http://2015.drupalcamp.at/user/2401","Display name":"Miloš Bovan"}},{"geometry":{"coordinates":[0.9209919,41.5416734999999],"type":"Point"},"id":2396,"type":"Feature","properties":{"UID":2396,"Latitude":41.5416734999999,"Longitude":0.9209919,"Link":"http://2015.drupalcamp.at/user/2396","Display name":"Eduard Reñé Claramunt"}},{"geometry":{"coordinates":[14.550072,47.516231],"type":"Point"},"id":2376,"type":"Feature","properties":{"UID":2376,"Latitude":47.516231,"Longitude":14.550072,"Link":"http://2015.drupalcamp.at/user/2376","Display name":"Thomas Neumann"}},{"geometry":{"coordinates":[21.1810736,46.5417887],"type":"Point"},"id":2371,"type":"Feature","properties":{"UID":2371,"Latitude":46.5417887,"Longitude":21.1810736,"Link":"http://2015.drupalcamp.at/user/2371","Display name":"Bálint Purece"}},{"geometry":{"coordinates":[10.451526,51.165691],"type":"Point"},"id":2366,"type":"Feature","properties":{"UID":2366,"Latitude":51.165691,"Longitude":10.451526,"Link":"http://2015.drupalcamp.at/user/2366","Display name":"Andreas Hucks"}},{"geometry":{"coordinates":[23.3220662,42.7086292],"type":"Point"},"id":2361,"type":"Feature","properties":{"UID":2361,"Latitude":42.7086292,"Longitude":23.3220662,"Link":"http://2015.drupalcamp.at/user/2361","Display name":"Lachezar Valchev"}},{"geometry":{"coordinates":[14.550072,47.516231],"type":"Point"},"id":2356,"type":"Feature","properties":{"UID":2356,"Latitude":47.516231,"Longitude":14.550072,"Link":"http://2015.drupalcamp.at/user/2356","Display name":"Carlo Sigler"}},{"geometry":{"coordinates":[14.550072,47.516231],"type":"Point"},"id":2351,"type":"Feature","properties":{"UID":2351,"Latitude":47.516231,"Longitude":14.550072,"Link":"http://2015.drupalcamp.at/user/2351","Display name":"Dainius Stankevicius"}},{"geometry":{"coordinates":[14.550072,47.516231],"type":"Point"},"id":2346,"type":"Feature","properties":{"UID":2346,"Latitude":47.516231,"Longitude":14.550072,"Link":"http://2015.drupalcamp.at/user/2346","Display name":"Laura Samaraweerova"}},{"geometry":{"coordinates":[14.550072,47.516231],"type":"Point"},"id":2341,"type":"Feature","properties":{"UID":2341,"Latitude":47.516231,"Longitude":14.550072,"Link":"http://2015.drupalcamp.at/user/2341","Display name":"Bruno Batinic"}},{"geometry":{"coordinates":[13.404954,52.5200065999999],"type":"Point"},"id":2336,"type":"Feature","properties":{"UID":2336,"Latitude":52.5200065999999,"Longitude":13.404954,"Link":"http://2015.drupalcamp.at/user/2336","Display name":"Luca Curella"}},{"geometry":{"coordinates":[6.91102679999999,50.9516638],"type":"Point"},"id":2331,"type":"Feature","properties":{"UID":2331,"Latitude":50.9516638,"Longitude":6.91102679999999,"Link":"http://2015.drupalcamp.at/user/2331","Display name":"Andrew Melck"}},{"geometry":{"coordinates":[15.6612565,46.9229406],"type":"Point"},"id":2326,"type":"Feature","properties":{"UID":2326,"Latitude":46.9229406,"Longitude":15.6612565,"Link":"http://2015.drupalcamp.at/user/2326","Display name":"Manuel Penaloza"}},{"geometry":{"coordinates":[11.6267106,49.844164],"type":"Point"},"id":2316,"type":"Feature","properties":{"UID":2316,"Latitude":49.844164,"Longitude":11.6267106,"Link":"http://2015.drupalcamp.at/user/2316","Display name":"Marcus Morba"}},{"geometry":{"coordinates":[16.3468274,48.1687563],"type":"Point"},"id":2311,"type":"Feature","properties":{"UID":2311,"Latitude":48.1687563,"Longitude":16.3468274,"Link":"http://2015.drupalcamp.at/user/2311","Display name":"Franz Josef Kaiser"}},{"geometry":{"coordinates":[15.8847136,45.7995507],"type":"Point"},"id":2306,"type":"Feature","properties":{"UID":2306,"Latitude":45.7995507,"Longitude":15.8847136,"Link":"http://2015.drupalcamp.at/user/2306","Display name":"Bruno Varazdinac"}},{"geometry":{"coordinates":[16.3388962,48.201466],"type":"Point"},"id":2301,"type":"Feature","properties":{"UID":2301,"Latitude":48.201466,"Longitude":16.3388962,"Link":"http://2015.drupalcamp.at/user/2301","Display name":"Michael Ternai"}},{"geometry":{"coordinates":[15.981919,45.8150108],"type":"Point"},"id":2296,"type":"Feature","properties":{"UID":2296,"Latitude":45.8150108,"Longitude":15.981919,"Link":"http://2015.drupalcamp.at/user/2296","Display name":"Tomislav Toman"}},{"geometry":{"coordinates":[10.451526,51.165691],"type":"Point"},"id":2291,"type":"Feature","properties":{"UID":2291,"Latitude":51.165691,"Longitude":10.451526,"Link":"http://2015.drupalcamp.at/user/2291","Display name":"Christian Schnabl"}},{"geometry":{"coordinates":[15.2,45.1],"type":"Point"},"id":2286,"type":"Feature","properties":{"UID":2286,"Latitude":45.1,"Longitude":15.2,"Link":"http://2015.drupalcamp.at/user/2286","Display name":"Josip Šarić"}},{"geometry":{"coordinates":[16.3388962,48.201466],"type":"Point"},"id":2281,"type":"Feature","properties":{"UID":2281,"Latitude":48.201466,"Longitude":16.3388962,"Link":"http://2015.drupalcamp.at/user/2281","Display name":"Michael Gaderer"}},{"geometry":{"coordinates":[15.8847136,45.7995507],"type":"Point"},"id":2276,"type":"Feature","properties":{"UID":2276,"Latitude":45.7995507,"Longitude":15.8847136,"Link":"http://2015.drupalcamp.at/user/2276","Display name":"Antonio Grabić"}},{"geometry":{"coordinates":[14.550072,47.516231],"type":"Point"},"id":2271,"type":"Feature","properties":{"UID":2271,"Latitude":47.516231,"Longitude":14.550072,"Link":"http://2015.drupalcamp.at/user/2271","Display name":"Adi Marvillo"}},{"geometry":{"coordinates":[16.3738189,48.2081743],"type":"Point"},"id":2266,"type":"Feature","properties":{"UID":2266,"Latitude":48.2081743,"Longitude":16.3738189,"Link":"http://2015.drupalcamp.at/user/2266","Display name":"Philip Röggla"}},{"geometry":{"coordinates":[16.2831064,48.2199409],"type":"Point"},"id":2261,"type":"Feature","properties":{"UID":2261,"Latitude":48.2199409,"Longitude":16.2831064,"Link":"http://2015.drupalcamp.at/user/2261","Display name":"Michael Marlovics"}},{"geometry":{"coordinates":[15.8847136,45.7995507],"type":"Point"},"id":2256,"type":"Feature","properties":{"UID":2256,"Latitude":45.7995507,"Longitude":15.8847136,"Link":"http://2015.drupalcamp.at/user/2256","Display name":"Ivica Arbanas"}},{"geometry":{"coordinates":[15.2,45.1],"type":"Point"},"id":2251,"type":"Feature","properties":{"UID":2251,"Latitude":45.1,"Longitude":15.2,"Link":"http://2015.drupalcamp.at/user/2251","Display name":"Matija Jurišić"}},{"geometry":{"coordinates":[15.2,45.1],"type":"Point"},"id":2246,"type":"Feature","properties":{"UID":2246,"Latitude":45.1,"Longitude":15.2,"Link":"http://2015.drupalcamp.at/user/2246","Display name":"Matija Jurcevic"}},{"geometry":{"coordinates":[15.8847136,45.7995507],"type":"Point"},"id":2241,"type":"Feature","properties":{"UID":2241,"Latitude":45.7995507,"Longitude":15.8847136,"Link":"http://2015.drupalcamp.at/user/2241","Display name":"Branimir Juranic"}},{"geometry":{"coordinates":[15.2,45.1],"type":"Point"},"id":2236,"type":"Feature","properties":{"UID":2236,"Latitude":45.1,"Longitude":15.2,"Link":"http://2015.drupalcamp.at/user/2236","Display name":"Andrija Prlic"}},{"geometry":{"coordinates":[14.550072,47.516231],"type":"Point"},"id":2231,"type":"Feature","properties":{"UID":2231,"Latitude":47.516231,"Longitude":14.550072,"Link":"http://2015.drupalcamp.at/user/2231","Display name":"Alexander Weis"}},{"geometry":{"coordinates":[19.7967491,45.2455907],"type":"Point"},"id":2226,"type":"Feature","properties":{"UID":2226,"Latitude":45.2455907,"Longitude":19.7967491,"Link":"http://2015.drupalcamp.at/user/2226","Display name":"Mladen Đurić"}},{"geometry":{"coordinates":[15.2,45.1],"type":"Point"},"id":2221,"type":"Feature","properties":{"UID":2221,"Latitude":45.1,"Longitude":15.2,"Link":"http://2015.drupalcamp.at/user/2221","Display name":"Dalibor Stojakovic"}},{"geometry":{"coordinates":[7.02305,51.46726],"type":"Point"},"id":2216,"type":"Feature","properties":{"UID":2216,"Latitude":51.46726,"Longitude":7.02305,"Link":"http://2015.drupalcamp.at/user/2216","Display name":"Eric Eggert"}},{"geometry":{"coordinates":[21.005859,44.016521],"type":"Point"},"id":2211,"type":"Feature","properties":{"UID":2211,"Latitude":44.016521,"Longitude":21.005859,"Link":"http://2015.drupalcamp.at/user/2211","Display name":"Dragomir Pantelic"}},{"geometry":{"coordinates":[14.995463,46.151241],"type":"Point"},"id":2201,"type":"Feature","properties":{"UID":2201,"Latitude":46.151241,"Longitude":14.995463,"Link":"http://2015.drupalcamp.at/user/2201","Display name":"Aleš Rebec"}},{"geometry":{"coordinates":[14.995463,46.151241],"type":"Point"},"id":2196,"type":"Feature","properties":{"UID":2196,"Latitude":46.151241,"Longitude":14.995463,"Link":"http://2015.drupalcamp.at/user/2196","Display name":"Tadej Baša"}},{"geometry":{"coordinates":[13.5972854,45.5172778],"type":"Point"},"id":2191,"type":"Feature","properties":{"UID":2191,"Latitude":45.5172778,"Longitude":13.5972854,"Link":"http://2015.drupalcamp.at/user/2191","Display name":"Ben Rajnovic"}},{"geometry":{"coordinates":[13.7495856,45.8240002],"type":"Point"},"id":2186,"type":"Feature","properties":{"UID":2186,"Latitude":45.8240002,"Longitude":13.7495856,"Link":"http://2015.drupalcamp.at/user/2186","Display name":"Auke Touwslager"}},{"geometry":{"coordinates":[13.7495856,45.8240002],"type":"Point"},"id":2181,"type":"Feature","properties":{"UID":2181,"Latitude":45.8240002,"Longitude":13.7495856,"Link":"http://2015.drupalcamp.at/user/2181","Display name":"Simon Birsa"}},{"geometry":{"coordinates":[13.7495856,45.8240002],"type":"Point"},"id":2176,"type":"Feature","properties":{"UID":2176,"Latitude":45.8240002,"Longitude":13.7495856,"Link":"http://2015.drupalcamp.at/user/2176","Display name":"Jernej Baša"}},{"geometry":{"coordinates":[13.7495856,45.8240002],"type":"Point"},"id":2171,"type":"Feature","properties":{"UID":2171,"Latitude":45.8240002,"Longitude":13.7495856,"Link":"http://2015.drupalcamp.at/user/2171","Display name":"Ursula Lavrencic"}},{"geometry":{"coordinates":[25.48583,42.733883],"type":"Point"},"id":2166,"type":"Feature","properties":{"UID":2166,"Latitude":42.733883,"Longitude":25.48583,"Link":"http://2015.drupalcamp.at/user/2166","Display name":"Dimitar Rupov"}},{"geometry":{"coordinates":[13.404954,52.5200065999999],"type":"Point"},"id":2161,"type":"Feature","properties":{"UID":2161,"Latitude":52.5200065999999,"Longitude":13.404954,"Link":"http://2015.drupalcamp.at/user/2161","Display name":"Rouven Volk"}},{"geometry":{"coordinates":[14.550072,47.516231],"type":"Point"},"id":2156,"type":"Feature","properties":{"UID":2156,"Latitude":47.516231,"Longitude":14.550072,"Link":"http://2015.drupalcamp.at/user/2156","Display name":"Nausikaa Matzenauer"}},{"geometry":{"coordinates":[44.5339671,40.1450327],"type":"Point"},"id":2151,"type":"Feature","properties":{"UID":2151,"Latitude":40.1450327,"Longitude":44.5339671,"Link":"http://2015.drupalcamp.at/user/2151","Display name":"Suren Ohanyan"}},{"geometry":{"coordinates":[16.0752431,45.7142122],"type":"Point"},"id":2146,"type":"Feature","properties":{"UID":2146,"Latitude":45.7142122,"Longitude":16.0752431,"Link":"http://2015.drupalcamp.at/user/2146","Display name":"Marko Dugonjić"}},{"geometry":{"coordinates":[16.3358371,48.1625026],"type":"Point"},"id":2136,"type":"Feature","properties":{"UID":2136,"Latitude":48.1625026,"Longitude":16.3358371,"Link":"http://2015.drupalcamp.at/user/2136","Display name":"Peter Paltinger"}},{"geometry":{"coordinates":[14.550072,47.516231],"type":"Point"},"id":2131,"type":"Feature","properties":{"UID":2131,"Latitude":47.516231,"Longitude":14.550072,"Link":"http://2015.drupalcamp.at/user/2131","Display name":"Adam Zielinski"}},{"geometry":{"coordinates":[14.2822522,48.3056907],"type":"Point"},"id":2121,"type":"Feature","properties":{"UID":2121,"Latitude":48.3056907,"Longitude":14.2822522,"Link":"http://2015.drupalcamp.at/user/2121","Display name":"Matthias Hutterer"}},{"geometry":{"coordinates":[14.2822522,48.3056907],"type":"Point"},"id":2111,"type":"Feature","properties":{"UID":2111,"Latitude":48.3056907,"Longitude":14.2822522,"Link":"http://2015.drupalcamp.at/user/2111","Display name":"Christian Jørgensen"}},{"geometry":{"coordinates":[16.0737769,47.711141],"type":"Point"},"id":2106,"type":"Feature","properties":{"UID":2106,"Latitude":47.711141,"Longitude":16.0737769,"Link":"http://2015.drupalcamp.at/user/2106","Display name":"Christian Artner"}},{"geometry":{"coordinates":[14.2822522,48.3056907],"type":"Point"},"id":2101,"type":"Feature","properties":{"UID":2101,"Latitude":48.3056907,"Longitude":14.2822522,"Link":"http://2015.drupalcamp.at/user/2101","Display name":"Mario Rader"}},{"geometry":{"coordinates":[19.7967491,45.2455907],"type":"Point"},"id":2096,"type":"Feature","properties":{"UID":2096,"Latitude":45.2455907,"Longitude":19.7967491,"Link":"http://2015.drupalcamp.at/user/2096","Display name":"Dragan Eror"}},{"geometry":{"coordinates":[10.8808638,49.8729118],"type":"Point"},"id":2091,"type":"Feature","properties":{"UID":2091,"Latitude":49.8729118,"Longitude":10.8808638,"Link":"http://2015.drupalcamp.at/user/2091","Display name":"Thomas Gick"}},{"geometry":{"coordinates":[10.451526,51.165691],"type":"Point"},"id":2086,"type":"Feature","properties":{"UID":2086,"Latitude":51.165691,"Longitude":10.451526,"Link":"http://2015.drupalcamp.at/user/2086","Display name":"Andre Baumeier"}},{"geometry":{"coordinates":[14.550072,47.516231],"type":"Point"},"id":2081,"type":"Feature","properties":{"UID":2081,"Latitude":47.516231,"Longitude":14.550072,"Link":"http://2015.drupalcamp.at/user/2081","Display name":"Clarissa Streichsbier"}},{"geometry":{"coordinates":[16.4295803,48.2541620999999],"type":"Point"},"id":2076,"type":"Feature","properties":{"UID":2076,"Latitude":48.2541620999999,"Longitude":16.4295803,"Link":"http://2015.drupalcamp.at/user/2076","Display name":"Monika Kolb"}},{"geometry":{"coordinates":[8.7558075,47.2027616],"type":"Point"},"id":2071,"type":"Feature","properties":{"UID":2071,"Latitude":47.2027616,"Longitude":8.7558075,"Link":"http://2015.drupalcamp.at/user/2071","Display name":"Christophe Galli"}},{"geometry":{"coordinates":[16.3631219,48.2002208],"type":"Point"},"id":2066,"type":"Feature","properties":{"UID":2066,"Latitude":48.2002208,"Longitude":16.3631219,"Link":"http://2015.drupalcamp.at/user/2066","Display name":"Thomas Seidl"}},{"geometry":{"coordinates":[19.7967491,45.2455907],"type":"Point"},"id":2061,"type":"Feature","properties":{"UID":2061,"Latitude":45.2455907,"Longitude":19.7967491,"Link":"http://2015.drupalcamp.at/user/2061","Display name":"Goran Miric"}},{"geometry":{"coordinates":[14.550072,47.516231],"type":"Point"},"id":2056,"type":"Feature","properties":{"UID":2056,"Latitude":47.516231,"Longitude":14.550072,"Link":"http://2015.drupalcamp.at/user/2056","Display name":"Dieter Sterzinger"}},{"geometry":{"coordinates":[19.7967491,45.2455907],"type":"Point"},"id":2051,"type":"Feature","properties":{"UID":2051,"Latitude":45.2455907,"Longitude":19.7967491,"Link":"http://2015.drupalcamp.at/user/2051","Display name":"Vladislav Stanic"}},{"geometry":{"coordinates":[15.7244736,47.1047612],"type":"Point"},"id":2046,"type":"Feature","properties":{"UID":2046,"Latitude":47.1047612,"Longitude":15.7244736,"Link":"http://2015.drupalcamp.at/user/2046","Display name":"Manfred Steyer"}},{"geometry":{"coordinates":[11.4345083,48.1640467],"type":"Point"},"id":2041,"type":"Feature","properties":{"UID":2041,"Latitude":48.1640467,"Longitude":11.4345083,"Link":"http://2015.drupalcamp.at/user/2041","Display name":"Roger Pfaff"}},{"geometry":{"coordinates":[15.9723614,47.2785403],"type":"Point"},"id":2036,"type":"Feature","properties":{"UID":2036,"Latitude":47.2785403,"Longitude":15.9723614,"Link":"http://2015.drupalcamp.at/user/2036","Display name":"Philipp Melab"}},{"geometry":{"coordinates":[20.4673791,44.8064043],"type":"Point"},"id":2031,"type":"Feature","properties":{"UID":2031,"Latitude":44.8064043,"Longitude":20.4673791,"Link":"http://2015.drupalcamp.at/user/2031","Display name":"Nikola Tucakovic"}},{"geometry":{"coordinates":[21.005859,44.016521],"type":"Point"},"id":2026,"type":"Feature","properties":{"UID":2026,"Latitude":44.016521,"Longitude":21.005859,"Link":"http://2015.drupalcamp.at/user/2026","Display name":"Vladimir Dlibasic"}},{"geometry":{"coordinates":[20.4673791,44.8064043],"type":"Point"},"id":2021,"type":"Feature","properties":{"UID":2021,"Latitude":44.8064043,"Longitude":20.4673791,"Link":"http://2015.drupalcamp.at/user/2021","Display name":"Jelena Krmar"}},{"geometry":{"coordinates":[20.4036095,44.8093006],"type":"Point"},"id":2016,"type":"Feature","properties":{"UID":2016,"Latitude":44.8093006,"Longitude":20.4036095,"Link":"http://2015.drupalcamp.at/user/2016","Display name":"Đorđe Eraković"}},{"geometry":{"coordinates":[21.005859,44.016521],"type":"Point"},"id":2011,"type":"Feature","properties":{"UID":2011,"Latitude":44.016521,"Longitude":21.005859,"Link":"http://2015.drupalcamp.at/user/2011","Display name":"Dusan Popovic"}},{"geometry":{"coordinates":[19.7967491,45.2455907],"type":"Point"},"id":2006,"type":"Feature","properties":{"UID":2006,"Latitude":45.2455907,"Longitude":19.7967491,"Link":"http://2015.drupalcamp.at/user/2006","Display name":"Branislav Radovanovic"}},{"geometry":{"coordinates":[16.3671604,48.1988391],"type":"Point"},"id":2001,"type":"Feature","properties":{"UID":2001,"Latitude":48.1988391,"Longitude":16.3671604,"Link":"http://2015.drupalcamp.at/user/2001","Display name":"Achim Sedelmaier"}},{"geometry":{"coordinates":[16.2145975,48.2088091],"type":"Point"},"id":1996,"type":"Feature","properties":{"UID":1996,"Latitude":48.2088091,"Longitude":16.2145975,"Link":"http://2015.drupalcamp.at/user/1996","Display name":"Daniel Bammer"}},{"geometry":{"coordinates":[21.005859,44.016521],"type":"Point"},"id":1991,"type":"Feature","properties":{"UID":1991,"Latitude":44.016521,"Longitude":21.005859,"Link":"http://2015.drupalcamp.at/user/1991","Display name":"Milan Galesev"}},{"geometry":{"coordinates":[21.005859,44.016521],"type":"Point"},"id":1986,"type":"Feature","properties":{"UID":1986,"Latitude":44.016521,"Longitude":21.005859,"Link":"http://2015.drupalcamp.at/user/1986","Display name":"Marija Maletkovic"}},{"geometry":{"coordinates":[19.7967491,45.2455907],"type":"Point"},"id":1981,"type":"Feature","properties":{"UID":1981,"Latitude":45.2455907,"Longitude":19.7967491,"Link":"http://2015.drupalcamp.at/user/1981","Display name":"Zarko Mrdja"}},{"geometry":{"coordinates":[19.8474836,45.2567443],"type":"Point"},"id":1976,"type":"Feature","properties":{"UID":1976,"Latitude":45.2567443,"Longitude":19.8474836,"Link":"http://2015.drupalcamp.at/user/1976","Display name":"Vladimir Tanovic"}},{"geometry":{"coordinates":[19.7967491,45.2455907],"type":"Point"},"id":1971,"type":"Feature","properties":{"UID":1971,"Latitude":45.2455907,"Longitude":19.7967491,"Link":"http://2015.drupalcamp.at/user/1971","Display name":"Marko Marovic"}},{"geometry":{"coordinates":[19.8474836,45.2567443],"type":"Point"},"id":1966,"type":"Feature","properties":{"UID":1966,"Latitude":45.2567443,"Longitude":19.8474836,"Link":"http://2015.drupalcamp.at/user/1966","Display name":"Darko Zaric"}},{"geometry":{"coordinates":[19.7967491,45.2455907],"type":"Point"},"id":1961,"type":"Feature","properties":{"UID":1961,"Latitude":45.2455907,"Longitude":19.7967491,"Link":"http://2015.drupalcamp.at/user/1961","Display name":"Predrag Petkovic"}},{"geometry":{"coordinates":[19.7967491,45.2455907],"type":"Point"},"id":1956,"type":"Feature","properties":{"UID":1956,"Latitude":45.2455907,"Longitude":19.7967491,"Link":"http://2015.drupalcamp.at/user/1956","Display name":"Nikola Djuric"}},{"geometry":{"coordinates":[11.6120973,48.1234082],"type":"Point"},"id":1951,"type":"Feature","properties":{"UID":1951,"Latitude":48.1234082,"Longitude":11.6120973,"Link":"http://2015.drupalcamp.at/user/1951","Display name":"Serhad Güldürsün"}},{"geometry":{"coordinates":[16.4295803,48.2541620999999],"type":"Point"},"id":1946,"type":"Feature","properties":{"UID":1946,"Latitude":48.2541620999999,"Longitude":16.4295803,"Link":"http://2015.drupalcamp.at/user/1946","Display name":"Reza Rastgoo"}},{"geometry":{"coordinates":[21.90269,47.025664],"type":"Point"},"id":1941,"type":"Feature","properties":{"UID":1941,"Latitude":47.025664,"Longitude":21.90269,"Link":"http://2015.drupalcamp.at/user/1941","Display name":"Méhész Emeric"}},{"geometry":{"coordinates":[9.94260729999999,53.5488885],"type":"Point"},"id":1936,"type":"Feature","properties":{"UID":1936,"Latitude":53.5488885,"Longitude":9.94260729999999,"Link":"http://2015.drupalcamp.at/user/1936","Display name":"Leticia Hillenbrand"}},{"geometry":{"coordinates":[7.9012724,47.354521],"type":"Point"},"id":1931,"type":"Feature","properties":{"UID":1931,"Latitude":47.354521,"Longitude":7.9012724,"Link":"http://2015.drupalcamp.at/user/1931","Display name":"Sascha Grossenbacher"}},{"geometry":{"coordinates":[19.7967491,45.2455907],"type":"Point"},"id":1921,"type":"Feature","properties":{"UID":1921,"Latitude":45.2455907,"Longitude":19.7967491,"Link":"http://2015.drupalcamp.at/user/1921","Display name":"Stevica Knezevic"}},{"geometry":{"coordinates":[4.36838989999999,50.8493679],"type":"Point"},"id":1916,"type":"Feature","properties":{"UID":1916,"Latitude":50.8493679,"Longitude":4.36838989999999,"Link":"http://2015.drupalcamp.at/user/1916","Display name":"Thomas Pappas"}},{"geometry":{"coordinates":[13.4887766,45.8437511],"type":"Point"},"id":1911,"type":"Feature","properties":{"UID":1911,"Latitude":45.8437511,"Longitude":13.4887766,"Link":"http://2015.drupalcamp.at/user/1911","Display name":"Primoz Hmeljak"}},{"geometry":{"coordinates":[19.040235,47.497912],"type":"Point"},"id":1906,"type":"Feature","properties":{"UID":1906,"Latitude":47.497912,"Longitude":19.040235,"Link":"http://2015.drupalcamp.at/user/1906","Display name":"Gergely Csonka"}},{"geometry":{"coordinates":[14.550072,47.516231],"type":"Point"},"id":1901,"type":"Feature","properties":{"UID":1901,"Latitude":47.516231,"Longitude":14.550072,"Link":"http://2015.drupalcamp.at/user/1901","Display name":"Joao Garin"}},{"geometry":{"coordinates":[14.550072,47.516231],"type":"Point"},"id":1896,"type":"Feature","properties":{"UID":1896,"Latitude":47.516231,"Longitude":14.550072,"Link":"http://2015.drupalcamp.at/user/1896","Display name":"Sebastian Gilits"}},{"geometry":{"coordinates":[20.3860472,47.9002515],"type":"Point"},"id":1886,"type":"Feature","properties":{"UID":1886,"Latitude":47.9002515,"Longitude":20.3860472,"Link":"http://2015.drupalcamp.at/user/1886","Display name":"Tamás Hajas"}},{"geometry":{"coordinates":[16.3527821,48.2168675],"type":"Point"},"id":1881,"type":"Feature","properties":{"UID":1881,"Latitude":48.2168675,"Longitude":16.3527821,"Link":"http://2015.drupalcamp.at/user/1881","Display name":"Reinhard Bogg"}},{"geometry":{"coordinates":[16.9998424,51.0619653],"type":"Point"},"id":1876,"type":"Feature","properties":{"UID":1876,"Latitude":51.0619653,"Longitude":16.9998424,"Link":"http://2015.drupalcamp.at/user/1876","Display name":"Jarek Sobiecki"}},{"geometry":{"coordinates":[3.7107891,51.0361562],"type":"Point"},"id":1866,"type":"Feature","properties":{"UID":1866,"Latitude":51.0361562,"Longitude":3.7107891,"Link":"http://2015.drupalcamp.at/user/1866","Display name":"Mattias Michaux"}},{"geometry":{"coordinates":[19.236921,47.4291969999999],"type":"Point"},"id":1861,"type":"Feature","properties":{"UID":1861,"Latitude":47.4291969999999,"Longitude":19.236921,"Link":"http://2015.drupalcamp.at/user/1861","Display name":"István Palócz"}},{"geometry":{"coordinates":[-76.6412711999999,39.0457549],"type":"Point"},"id":1856,"type":"Feature","properties":{"UID":1856,"Latitude":39.0457549,"Longitude":-76.6412711999999,"Link":"http://2015.drupalcamp.at/user/1856","Display name":"Kalpana Goel"}},{"geometry":{"coordinates":[14.995463,46.151241],"type":"Point"},"id":1851,"type":"Feature","properties":{"UID":1851,"Latitude":46.151241,"Longitude":14.995463,"Link":"http://2015.drupalcamp.at/user/1851","Display name":"Aljoša Furlanič"}},{"geometry":{"coordinates":[14.3185303,48.336859],"type":"Point"},"id":1846,"type":"Feature","properties":{"UID":1846,"Latitude":48.336859,"Longitude":14.3185303,"Link":"http://2015.drupalcamp.at/user/1846","Display name":"Harald Zeitlhofer"}},{"geometry":{"coordinates":[19.699024,48.669026],"type":"Point"},"id":1841,"type":"Feature","properties":{"UID":1841,"Latitude":48.669026,"Longitude":19.699024,"Link":"http://2015.drupalcamp.at/user/1841","Display name":"Milan Lukac"}},{"geometry":{"coordinates":[18.1958994,47.8795912],"type":"Point"},"id":1836,"type":"Feature","properties":{"UID":1836,"Latitude":47.8795912,"Longitude":18.1958994,"Link":"http://2015.drupalcamp.at/user/1836","Display name":"Karol Kasáš"}},{"geometry":{"coordinates":[-3.435973,55.378051],"type":"Point"},"id":1831,"type":"Feature","properties":{"UID":1831,"Latitude":55.378051,"Longitude":-3.435973,"Link":"http://2015.drupalcamp.at/user/1831","Display name":"Clancy Hood"}},{"geometry":{"coordinates":[3.7107891,51.0361562],"type":"Point"},"id":1826,"type":"Feature","properties":{"UID":1826,"Latitude":51.0361562,"Longitude":3.7107891,"Link":"http://2015.drupalcamp.at/user/1826","Display name":"Sven Decabooter"}},{"geometry":{"coordinates":[21.90269,47.025664],"type":"Point"},"id":1821,"type":"Feature","properties":{"UID":1821,"Latitude":47.025664,"Longitude":21.90269,"Link":"http://2015.drupalcamp.at/user/1821","Display name":"Radu Clitan"}},{"geometry":{"coordinates":[21.90269,47.025664],"type":"Point"},"id":1816,"type":"Feature","properties":{"UID":1816,"Latitude":47.025664,"Longitude":21.90269,"Link":"http://2015.drupalcamp.at/user/1816","Display name":"Elena Alexie"}},{"geometry":{"coordinates":[21.90269,47.025664],"type":"Point"},"id":1811,"type":"Feature","properties":{"UID":1811,"Latitude":47.025664,"Longitude":21.90269,"Link":"http://2015.drupalcamp.at/user/1811","Display name":"Munteanu Remus Adrian"}},{"geometry":{"coordinates":[14.550072,47.516231],"type":"Point"},"id":1806,"type":"Feature","properties":{"UID":1806,"Latitude":47.516231,"Longitude":14.550072,"Link":"http://2015.drupalcamp.at/user/1806","Display name":"Georg Bixa"}},{"geometry":{"coordinates":[21.90269,47.025664],"type":"Point"},"id":1801,"type":"Feature","properties":{"UID":1801,"Latitude":47.025664,"Longitude":21.90269,"Link":"http://2015.drupalcamp.at/user/1801","Display name":"Sandor Kovacs"}},{"geometry":{"coordinates":[11.0956989,49.4573],"type":"Point"},"id":1796,"type":"Feature","properties":{"UID":1796,"Latitude":49.4573,"Longitude":11.0956989,"Link":"http://2015.drupalcamp.at/user/1796","Display name":"Holger Volk"}},{"geometry":{"coordinates":[10.451526,51.165691],"type":"Point"},"id":1791,"type":"Feature","properties":{"UID":1791,"Latitude":51.165691,"Longitude":10.451526,"Link":"http://2015.drupalcamp.at/user/1791","Display name":"Ralf Koller"}},{"geometry":{"coordinates":[13.2885484,52.4532523],"type":"Point"},"id":1786,"type":"Feature","properties":{"UID":1786,"Latitude":52.4532523,"Longitude":13.2885484,"Link":"http://2015.drupalcamp.at/user/1786","Display name":"Katja Heitmann"}},{"geometry":{"coordinates":[19.699024,48.669026],"type":"Point"},"id":1781,"type":"Feature","properties":{"UID":1781,"Latitude":48.669026,"Longitude":19.699024,"Link":"http://2015.drupalcamp.at/user/1781","Display name":"Oliver Habara"}},{"geometry":{"coordinates":[16.4295803,48.2541620999999],"type":"Point"},"id":1776,"type":"Feature","properties":{"UID":1776,"Latitude":48.2541620999999,"Longitude":16.4295803,"Link":"http://2015.drupalcamp.at/user/1776","Display name":"Klaus Furtmueller"}},{"geometry":{"coordinates":[16.3738189,48.2081743],"type":"Point"},"id":1771,"type":"Feature","properties":{"UID":1771,"Latitude":48.2081743,"Longitude":16.3738189,"Link":"http://2015.drupalcamp.at/user/1771","Display name":"Jorge Campo"}},{"geometry":{"coordinates":[11.7481658,47.4235386999999],"type":"Point"},"id":1766,"type":"Feature","properties":{"UID":1766,"Latitude":47.4235386999999,"Longitude":11.7481658,"Link":"http://2015.drupalcamp.at/user/1766","Display name":"Anita Kobinger"}},{"geometry":{"coordinates":[21.2565024,45.7328812],"type":"Point"},"id":1761,"type":"Feature","properties":{"UID":1761,"Latitude":45.7328812,"Longitude":21.2565024,"Link":"http://2015.drupalcamp.at/user/1761","Display name":"Marius Diacu"}},{"geometry":{"coordinates":[19.503304,47.162494],"type":"Point"},"id":1756,"type":"Feature","properties":{"UID":1756,"Latitude":47.162494,"Longitude":19.503304,"Link":"http://2015.drupalcamp.at/user/1756","Display name":"Zsolt Nagy"}},{"geometry":{"coordinates":[-87.7812524,41.8734757],"type":"Point"},"id":1751,"type":"Feature","properties":{"UID":1751,"Latitude":41.8734757,"Longitude":-87.7812524,"Link":"http://2015.drupalcamp.at/user/1751","Display name":"Cathy Theys"}},{"geometry":{"coordinates":[14.550072,47.516231],"type":"Point"},"id":1741,"type":"Feature","properties":{"UID":1741,"Latitude":47.516231,"Longitude":14.550072,"Link":"http://2015.drupalcamp.at/user/1741","Display name":"Ali Sharif"}},{"geometry":{"coordinates":[5.29126599999999,52.132633],"type":"Point"},"id":1736,"type":"Feature","properties":{"UID":1736,"Latitude":52.132633,"Longitude":5.29126599999999,"Link":"http://2015.drupalcamp.at/user/1736","Display name":"Stefan Ruijsenaars"}},{"geometry":{"coordinates":[16.4295803,48.2541620999999],"type":"Point"},"id":1731,"type":"Feature","properties":{"UID":1731,"Latitude":48.2541620999999,"Longitude":16.4295803,"Link":"http://2015.drupalcamp.at/user/1731","Display name":"Moriz Büsing"}},{"geometry":{"coordinates":[-0.0853346,51.5320186999999],"type":"Point"},"id":1726,"type":"Feature","properties":{"UID":1726,"Latitude":51.5320186999999,"Longitude":-0.0853346,"Link":"http://2015.drupalcamp.at/user/1726","Display name":"Baris Tosun"}},{"geometry":{"coordinates":[-5.9661272,37.3851974],"type":"Point"},"id":1721,"type":"Feature","properties":{"UID":1721,"Latitude":37.3851974,"Longitude":-5.9661272,"Link":"http://2015.drupalcamp.at/user/1721","Display name":"Christian López Espínola"}},{"geometry":{"coordinates":[14.550072,47.516231],"type":"Point"},"id":1716,"type":"Feature","properties":{"UID":1716,"Latitude":47.516231,"Longitude":14.550072,"Link":"http://2015.drupalcamp.at/user/1716","Display name":"Sven Hilberth"}},{"geometry":{"coordinates":[19.236921,47.4291969999999],"type":"Point"},"id":1711,"type":"Feature","properties":{"UID":1711,"Latitude":47.4291969999999,"Longitude":19.236921,"Link":"http://2015.drupalcamp.at/user/1711","Display name":"Gábor Reisinger"}},{"geometry":{"coordinates":[9.7630649,52.3769996],"type":"Point"},"id":1706,"type":"Feature","properties":{"UID":1706,"Latitude":52.3769996,"Longitude":9.7630649,"Link":"http://2015.drupalcamp.at/user/1706","Display name":"Karsten Violka"}},{"geometry":{"coordinates":[16.3359792,48.2747156999999],"type":"Point"},"id":1701,"type":"Feature","properties":{"UID":1701,"Latitude":48.2747156999999,"Longitude":16.3359792,"Link":"http://2015.drupalcamp.at/user/1701","Display name":"Aladin Chaibi"}},{"geometry":{"coordinates":[12.5701154,55.6754976],"type":"Point"},"id":1696,"type":"Feature","properties":{"UID":1696,"Latitude":55.6754976,"Longitude":12.5701154,"Link":"http://2015.drupalcamp.at/user/1696","Display name":"Morten Birch"}},{"geometry":{"coordinates":[16.4295803,48.2541620999999],"type":"Point"},"id":1691,"type":"Feature","properties":{"UID":1691,"Latitude":48.2541620999999,"Longitude":16.4295803,"Link":"http://2015.drupalcamp.at/user/1691","Display name":"Dominik Prüll"}},{"geometry":{"coordinates":[16.3700245,48.2057146],"type":"Point"},"id":1686,"type":"Feature","properties":{"UID":1686,"Latitude":48.2057146,"Longitude":16.3700245,"Link":"http://2015.drupalcamp.at/user/1686","Display name":"Oliver Berndt"}},{"geometry":{"coordinates":[14.550072,47.516231],"type":"Point"},"id":1681,"type":"Feature","properties":{"UID":1681,"Latitude":47.516231,"Longitude":14.550072,"Link":"http://2015.drupalcamp.at/user/1681","Display name":"Tom Kroll"}},{"geometry":{"coordinates":[14.550072,47.516231],"type":"Point"},"id":1676,"type":"Feature","properties":{"UID":1676,"Latitude":47.516231,"Longitude":14.550072,"Link":"http://2015.drupalcamp.at/user/1676","Display name":"Maya Kokits"}},{"geometry":{"coordinates":[5.2411576,50.0574224],"type":"Point"},"id":1671,"type":"Feature","properties":{"UID":1671,"Latitude":50.0574224,"Longitude":5.2411576,"Link":"http://2015.drupalcamp.at/user/1671","Display name":"Nick Veenhof"}},{"geometry":{"coordinates":[13.9707041,50.6990128],"type":"Point"},"id":1666,"type":"Feature","properties":{"UID":1666,"Latitude":50.6990128,"Longitude":13.9707041,"Link":"http://2015.drupalcamp.at/user/1666","Display name":"Petr Zoufaly"}},{"geometry":{"coordinates":[13.3314784,52.5487765],"type":"Point"},"id":1661,"type":"Feature","properties":{"UID":1661,"Latitude":52.5487765,"Longitude":13.3314784,"Link":"http://2015.drupalcamp.at/user/1661","Display name":"Erik Berdonces Bonelo"}},{"geometry":{"coordinates":[5.29126599999999,52.132633],"type":"Point"},"id":1656,"type":"Feature","properties":{"UID":1656,"Latitude":52.132633,"Longitude":5.29126599999999,"Link":"http://2015.drupalcamp.at/user/1656","Display name":"Jeroen van Lent"}},{"geometry":{"coordinates":[25.6998064,62.2573193999999],"type":"Point"},"id":1651,"type":"Feature","properties":{"UID":1651,"Latitude":62.2573193999999,"Longitude":25.6998064,"Link":"http://2015.drupalcamp.at/user/1651","Display name":"Mikko Hyvärinen"}},{"geometry":{"coordinates":[19.7967491,45.2455907],"type":"Point"},"id":1646,"type":"Feature","properties":{"UID":1646,"Latitude":45.2455907,"Longitude":19.7967491,"Link":"http://2015.drupalcamp.at/user/1646","Display name":"Damjan Gataric"}},{"geometry":{"coordinates":[8.5077574,47.1767833],"type":"Point"},"id":1641,"type":"Feature","properties":{"UID":1641,"Latitude":47.1767833,"Longitude":8.5077574,"Link":"http://2015.drupalcamp.at/user/1641","Display name":"Mikkel Høgh"}},{"geometry":{"coordinates":[14.550072,47.516231],"type":"Point"},"id":1636,"type":"Feature","properties":{"UID":1636,"Latitude":47.516231,"Longitude":14.550072,"Link":"http://2015.drupalcamp.at/user/1636","Display name":"Vincenz Leichtfried"}},{"geometry":{"coordinates":[23.2808703,42.6561983],"type":"Point"},"id":1631,"type":"Feature","properties":{"UID":1631,"Latitude":42.6561983,"Longitude":23.2808703,"Link":"http://2015.drupalcamp.at/user/1631","Display name":"Daniel Kanchev"}},{"geometry":{"coordinates":[9.0576448,48.5216364],"type":"Point"},"id":1626,"type":"Feature","properties":{"UID":1626,"Latitude":48.5216364,"Longitude":9.0576448,"Link":"http://2015.drupalcamp.at/user/1626","Display name":"Daniel Wehner"}},{"geometry":{"coordinates":[16.3527821,48.2168675],"type":"Point"},"id":1621,"type":"Feature","properties":{"UID":1621,"Latitude":48.2168675,"Longitude":16.3527821,"Link":"http://2015.drupalcamp.at/user/1621","Display name":"Ulrike Strommer"}},{"geometry":{"coordinates":[16.3468274,48.1687563],"type":"Point"},"id":1616,"type":"Feature","properties":{"UID":1616,"Latitude":48.1687563,"Longitude":16.3468274,"Link":"http://2015.drupalcamp.at/user/1616","Display name":"Tim Hagn"}},{"geometry":{"coordinates":[19.040235,47.497912],"type":"Point"},"id":1611,"type":"Feature","properties":{"UID":1611,"Latitude":47.497912,"Longitude":19.040235,"Link":"http://2015.drupalcamp.at/user/1611","Display name":"Adam Boros"}},{"geometry":{"coordinates":[16.3671604,48.1988391],"type":"Point"},"id":1606,"type":"Feature","properties":{"UID":1606,"Latitude":48.1988391,"Longitude":16.3671604,"Link":"http://2015.drupalcamp.at/user/1606","Display name":"Jo Spelbrink"}},{"geometry":{"coordinates":[16.3738189,48.2081743],"type":"Point"},"id":1601,"type":"Feature","properties":{"UID":1601,"Latitude":48.2081743,"Longitude":16.3738189,"Link":"http://2015.drupalcamp.at/user/1601","Display name":"Andreas Tasch"}},{"geometry":{"coordinates":[10.451526,51.165691],"type":"Point"},"id":1596,"type":"Feature","properties":{"UID":1596,"Latitude":51.165691,"Longitude":10.451526,"Link":"http://2015.drupalcamp.at/user/1596","Display name":"Saena Chun"}},{"geometry":{"coordinates":[10.451526,51.165691],"type":"Point"},"id":1591,"type":"Feature","properties":{"UID":1591,"Latitude":51.165691,"Longitude":10.451526,"Link":"http://2015.drupalcamp.at/user/1591","Display name":"Tino Urbiks"}},{"geometry":{"coordinates":[14.5152496,46.058708],"type":"Point"},"id":1586,"type":"Feature","properties":{"UID":1586,"Latitude":46.058708,"Longitude":14.5152496,"Link":"http://2015.drupalcamp.at/user/1586","Display name":"Snežana Lazarovska"}},{"geometry":{"coordinates":[16.4504452,48.1933523],"type":"Point"},"id":1581,"type":"Feature","properties":{"UID":1581,"Latitude":48.1933523,"Longitude":16.4504452,"Link":"http://2015.drupalcamp.at/user/1581","Display name":"Christoph Hoffmann"}},{"geometry":{"coordinates":[8.6285365,49.8776346999999],"type":"Point"},"id":1576,"type":"Feature","properties":{"UID":1576,"Latitude":49.8776346999999,"Longitude":8.6285365,"Link":"http://2015.drupalcamp.at/user/1576","Display name":"Nadine Geiss"}},{"geometry":{"coordinates":[10.451526,51.165691],"type":"Point"},"id":1571,"type":"Feature","properties":{"UID":1571,"Latitude":51.165691,"Longitude":10.451526,"Link":"http://2015.drupalcamp.at/user/1571","Display name":"Sebastian Gurlt"}},{"geometry":{"coordinates":[4.8951679,52.3702157],"type":"Point"},"id":1566,"type":"Feature","properties":{"UID":1566,"Latitude":52.3702157,"Longitude":4.8951679,"Link":"http://2015.drupalcamp.at/user/1566","Display name":"Roderik Muit"}},{"geometry":{"coordinates":[16.4504452,48.1933523],"type":"Point"},"id":1561,"type":"Feature","properties":{"UID":1561,"Latitude":48.1933523,"Longitude":16.4504452,"Link":"http://2015.drupalcamp.at/user/1561","Display name":"Lukas Hörmann"}},{"geometry":{"coordinates":[7.1208908,50.7152348],"type":"Point"},"id":1556,"type":"Feature","properties":{"UID":1556,"Latitude":50.7152348,"Longitude":7.1208908,"Link":"http://2015.drupalcamp.at/user/1556","Display name":"Frank Müller"}},{"geometry":{"coordinates":[19.236921,47.4291969999999],"type":"Point"},"id":1551,"type":"Feature","properties":{"UID":1551,"Latitude":47.4291969999999,"Longitude":19.236921,"Link":"http://2015.drupalcamp.at/user/1551","Display name":"Dávid Segesvári"}},{"geometry":{"coordinates":[14.550072,47.516231],"type":"Point"},"id":1546,"type":"Feature","properties":{"UID":1546,"Latitude":47.516231,"Longitude":14.550072,"Link":"http://2015.drupalcamp.at/user/1546","Display name":"Klaus Illmayer"}},{"geometry":{"coordinates":[4.469936,50.503887],"type":"Point"},"id":1531,"type":"Feature","properties":{"UID":1531,"Latitude":50.503887,"Longitude":4.469936,"Link":"http://2015.drupalcamp.at/user/1531","Display name":"Senne Torfs"}},{"geometry":{"coordinates":[14.5152496,46.058708],"type":"Point"},"id":1526,"type":"Feature","properties":{"UID":1526,"Latitude":46.058708,"Longitude":14.5152496,"Link":"http://2015.drupalcamp.at/user/1526","Display name":"Mojca Cvetko"}},{"geometry":{"coordinates":[8.4307962,48.0729029],"type":"Point"},"id":1521,"type":"Feature","properties":{"UID":1521,"Latitude":48.0729029,"Longitude":8.4307962,"Link":"http://2015.drupalcamp.at/user/1521","Display name":"Oskar Bechtold"}},{"geometry":{"coordinates":[14.2822522,48.3056907],"type":"Point"},"id":1516,"type":"Feature","properties":{"UID":1516,"Latitude":48.3056907,"Longitude":14.2822522,"Link":"http://2015.drupalcamp.at/user/1516","Display name":"Roland Obermair"}},{"geometry":{"coordinates":[46.544831,25.0054482],"type":"Point"},"id":1511,"type":"Feature","properties":{"UID":1511,"Latitude":25.0054482,"Longitude":46.544831,"Link":"http://2015.drupalcamp.at/user/1511","Display name":"Essam Al-Qaie"}},{"geometry":{"coordinates":[2.213749,46.227638],"type":"Point"},"id":1501,"type":"Feature","properties":{"UID":1501,"Latitude":46.227638,"Longitude":2.213749,"Link":"http://2015.drupalcamp.at/user/1501","Display name":"Théodore Biadala"}},{"geometry":{"coordinates":[5.29126599999999,52.132633],"type":"Point"},"id":1496,"type":"Feature","properties":{"UID":1496,"Latitude":52.132633,"Longitude":5.29126599999999,"Link":"http://2015.drupalcamp.at/user/1496","Display name":"Nancy Beers"}},{"geometry":{"coordinates":[25.48583,42.733883],"type":"Point"},"id":1486,"type":"Feature","properties":{"UID":1486,"Latitude":42.733883,"Longitude":25.48583,"Link":"http://2015.drupalcamp.at/user/1486","Display name":"Nikolay Ignatov"}},{"geometry":{"coordinates":[24.9410248,60.1733244],"type":"Point"},"id":1481,"type":"Feature","properties":{"UID":1481,"Latitude":60.1733244,"Longitude":24.9410248,"Link":"http://2015.drupalcamp.at/user/1481","Display name":"Lauri Eskola"}},{"geometry":{"coordinates":[19.699024,48.669026],"type":"Point"},"id":1476,"type":"Feature","properties":{"UID":1476,"Latitude":48.669026,"Longitude":19.699024,"Link":"http://2015.drupalcamp.at/user/1476","Display name":"Miro Michalička"}},{"geometry":{"coordinates":[16.4295803,48.2541620999999],"type":"Point"},"id":1471,"type":"Feature","properties":{"UID":1471,"Latitude":48.2541620999999,"Longitude":16.4295803,"Link":"http://2015.drupalcamp.at/user/1471","Display name":"Pavan Malji"}},{"geometry":{"coordinates":[14.2822522,48.3056907],"type":"Point"},"id":1466,"type":"Feature","properties":{"UID":1466,"Latitude":48.3056907,"Longitude":14.2822522,"Link":"http://2015.drupalcamp.at/user/1466","Display name":"David Malavasi"}},{"geometry":{"coordinates":[20.6310475,44.9013545],"type":"Point"},"id":1461,"type":"Feature","properties":{"UID":1461,"Latitude":44.9013545,"Longitude":20.6310475,"Link":"http://2015.drupalcamp.at/user/1461","Display name":"Miljenko Vujaklija"}},{"geometry":{"coordinates":[16.4304635,48.2533266],"type":"Point"},"id":1456,"type":"Feature","properties":{"UID":1456,"Latitude":48.2533266,"Longitude":16.4304635,"Link":"http://2015.drupalcamp.at/user/1456","Display name":"Neeraj Sharma"}},{"geometry":{"coordinates":[14.550072,47.516231],"type":"Point"},"id":1451,"type":"Feature","properties":{"UID":1451,"Latitude":47.516231,"Longitude":14.550072,"Link":"http://2015.drupalcamp.at/user/1451","Display name":"Christoph Rumpel"}},{"geometry":{"coordinates":[16.3023068,48.3317217],"type":"Point"},"id":1446,"type":"Feature","properties":{"UID":1446,"Latitude":48.3317217,"Longitude":16.3023068,"Link":"http://2015.drupalcamp.at/user/1446","Display name":"Gregor Weindl"}},{"geometry":{"coordinates":[4.2904141,52.0640973999999],"type":"Point"},"id":1441,"type":"Feature","properties":{"UID":1441,"Latitude":52.0640973999999,"Longitude":4.2904141,"Link":"http://2015.drupalcamp.at/user/1441","Display name":"Paul Krischer"}},{"geometry":{"coordinates":[16.258522,47.843532],"type":"Point"},"id":1436,"type":"Feature","properties":{"UID":1436,"Latitude":47.843532,"Longitude":16.258522,"Link":"http://2015.drupalcamp.at/user/1436","Display name":"Johann Zettel"}},{"geometry":{"coordinates":[11.5089621,48.1288628],"type":"Point"},"id":1431,"type":"Feature","properties":{"UID":1431,"Latitude":48.1288628,"Longitude":11.5089621,"Link":"http://2015.drupalcamp.at/user/1431","Display name":"Walter Jenner"}},{"geometry":{"coordinates":[4.453194,50.8503336],"type":"Point"},"id":1426,"type":"Feature","properties":{"UID":1426,"Latitude":50.8503336,"Longitude":4.453194,"Link":"http://2015.drupalcamp.at/user/1426","Display name":"Balazs Tatar"}},{"geometry":{"coordinates":[16.5228146,47.8471288],"type":"Point"},"id":1421,"type":"Feature","properties":{"UID":1421,"Latitude":47.8471288,"Longitude":16.5228146,"Link":"http://2015.drupalcamp.at/user/1421","Display name":"Paul Lebmann"}},{"geometry":{"coordinates":[13.8306072,50.6814409],"type":"Point"},"id":1416,"type":"Feature","properties":{"UID":1416,"Latitude":50.6814409,"Longitude":13.8306072,"Link":"http://2015.drupalcamp.at/user/1416","Display name":"Radim Klaska"}},{"geometry":{"coordinates":[9.00015509999999,48.7059177999999],"type":"Point"},"id":1406,"type":"Feature","properties":{"UID":1406,"Latitude":48.7059177999999,"Longitude":9.00015509999999,"Link":"http://2015.drupalcamp.at/user/1406","Display name":"Boris Böhne"}},{"geometry":{"coordinates":[23.3218675,42.6977082],"type":"Point"},"id":1401,"type":"Feature","properties":{"UID":1401,"Latitude":42.6977082,"Longitude":23.3218675,"Link":"http://2015.drupalcamp.at/user/1401","Display name":"Biser Simeonov"}},{"geometry":{"coordinates":[35.046183,48.464717],"type":"Point"},"id":1396,"type":"Feature","properties":{"UID":1396,"Latitude":48.464717,"Longitude":35.046183,"Link":"http://2015.drupalcamp.at/user/1396","Display name":"Artyom Miroshnik"}},{"geometry":{"coordinates":[10.4288735,45.1278359],"type":"Point"},"id":1386,"type":"Feature","properties":{"UID":1386,"Latitude":45.1278359,"Longitude":10.4288735,"Link":"http://2015.drupalcamp.at/user/1386","Display name":"Eugenio Minardi"}},{"geometry":{"coordinates":[14.324326,46.6499635],"type":"Point"},"id":1381,"type":"Feature","properties":{"UID":1381,"Latitude":46.6499635,"Longitude":14.324326,"Link":"http://2015.drupalcamp.at/user/1381","Display name":"Marco von Frieling"}},{"geometry":{"coordinates":[16.3527821,48.2168675],"type":"Point"},"id":1376,"type":"Feature","properties":{"UID":1376,"Latitude":48.2168675,"Longitude":16.3527821,"Link":"http://2015.drupalcamp.at/user/1376","Display name":"Knud Frank"}},{"geometry":{"coordinates":[16.116667,48.316666],"type":"Point"},"id":1371,"type":"Feature","properties":{"UID":1371,"Latitude":48.316666,"Longitude":16.116667,"Link":"http://2015.drupalcamp.at/user/1371","Display name":"Markus Rössler"}},{"geometry":{"coordinates":[23.3218119,42.7000147],"type":"Point"},"id":1366,"type":"Feature","properties":{"UID":1366,"Latitude":42.7000147,"Longitude":23.3218119,"Link":"http://2015.drupalcamp.at/user/1366","Display name":"Rositza Dikova"}},{"geometry":{"coordinates":[21.2577999,48.7210052999999],"type":"Point"},"id":1346,"type":"Feature","properties":{"UID":1346,"Latitude":48.7210052999999,"Longitude":21.2577999,"Link":"http://2015.drupalcamp.at/user/1346","Display name":"Tomáš Hegeduš"}},{"geometry":{"coordinates":[14.550072,47.516231],"type":"Point"},"id":1341,"type":"Feature","properties":{"UID":1341,"Latitude":47.516231,"Longitude":14.550072,"Link":"http://2015.drupalcamp.at/user/1341","Display name":"Barbara Krautgartner"}},{"geometry":{"coordinates":[21.2525462,45.7700301],"type":"Point"},"id":1336,"type":"Feature","properties":{"UID":1336,"Latitude":45.7700301,"Longitude":21.2525462,"Link":"http://2015.drupalcamp.at/user/1336","Display name":"Calin Marian"}},{"geometry":{"coordinates":[14.550072,47.516231],"type":"Point"},"id":1331,"type":"Feature","properties":{"UID":1331,"Latitude":47.516231,"Longitude":14.550072,"Link":"http://2015.drupalcamp.at/user/1331","Display name":"Michael Zach"}},{"geometry":{"coordinates":[14.550072,47.516231],"type":"Point"},"id":1316,"type":"Feature","properties":{"UID":1316,"Latitude":47.516231,"Longitude":14.550072,"Link":"http://2015.drupalcamp.at/user/1316","Display name":"David Bauer"}},{"geometry":{"coordinates":[14.550072,47.516231],"type":"Point"},"id":1311,"type":"Feature","properties":{"UID":1311,"Latitude":47.516231,"Longitude":14.550072,"Link":"http://2015.drupalcamp.at/user/1311","Display name":"Markus Oberlehner"}},{"geometry":{"coordinates":[16.3738189,48.2081743],"type":"Point"},"id":1301,"type":"Feature","properties":{"UID":1301,"Latitude":48.2081743,"Longitude":16.3738189,"Link":"http://2015.drupalcamp.at/user/1301","Display name":"Sebastian Göttschkes"}},{"geometry":{"coordinates":[-0.1222151,51.5327407],"type":"Point"},"id":1296,"type":"Feature","properties":{"UID":1296,"Latitude":51.5327407,"Longitude":-0.1222151,"Link":"http://2015.drupalcamp.at/user/1296","Display name":"Janis Janovskis"}},{"geometry":{"coordinates":[16.3358371,48.1625026],"type":"Point"},"id":1281,"type":"Feature","properties":{"UID":1281,"Latitude":48.1625026,"Longitude":16.3358371,"Link":"http://2015.drupalcamp.at/user/1281","Display name":"Philipp Klimek"}},{"geometry":{"coordinates":[14.550072,47.516231],"type":"Point"},"id":1276,"type":"Feature","properties":{"UID":1276,"Latitude":47.516231,"Longitude":14.550072,"Link":"http://2015.drupalcamp.at/user/1276","Display name":"Markus Schwarz"}},{"geometry":{"coordinates":[16.2831064,48.2199409],"type":"Point"},"id":1271,"type":"Feature","properties":{"UID":1271,"Latitude":48.2199409,"Longitude":16.2831064,"Link":"http://2015.drupalcamp.at/user/1271","Display name":"L. Fucik"}},{"geometry":{"coordinates":[14.5152496,46.058708],"type":"Point"},"id":1251,"type":"Feature","properties":{"UID":1251,"Latitude":46.058708,"Longitude":14.5152496,"Link":"http://2015.drupalcamp.at/user/1251","Display name":"sanja kovac"}},{"geometry":{"coordinates":[21.2618872,48.7134489],"type":"Point"},"id":1246,"type":"Feature","properties":{"UID":1246,"Latitude":48.7134489,"Longitude":21.2618872,"Link":"http://2015.drupalcamp.at/user/1246","Display name":"Tomáš Barej"}},{"geometry":{"coordinates":[21.2577999,48.7210052999999],"type":"Point"},"id":1241,"type":"Feature","properties":{"UID":1241,"Latitude":48.7210052999999,"Longitude":21.2577999,"Link":"http://2015.drupalcamp.at/user/1241","Display name":"Lukáš Ličko"}},{"geometry":{"coordinates":[16.3700245,48.2057146],"type":"Point"},"id":1236,"type":"Feature","properties":{"UID":1236,"Latitude":48.2057146,"Longitude":16.3700245,"Link":"http://2015.drupalcamp.at/user/1236","Display name":"Dominik Kiss"}},{"geometry":{"coordinates":[16.116667,48.316666],"type":"Point"},"id":1231,"type":"Feature","properties":{"UID":1231,"Latitude":48.316666,"Longitude":16.116667,"Link":"http://2015.drupalcamp.at/user/1231","Display name":"Thomas Renner"}},{"geometry":{"coordinates":[19.040235,47.497912],"type":"Point"},"id":1216,"type":"Feature","properties":{"UID":1216,"Latitude":47.497912,"Longitude":19.040235,"Link":"http://2015.drupalcamp.at/user/1216","Display name":"Attila Iski"}},{"geometry":{"coordinates":[14.550072,47.516231],"type":"Point"},"id":1211,"type":"Feature","properties":{"UID":1211,"Latitude":47.516231,"Longitude":14.550072,"Link":"http://2015.drupalcamp.at/user/1211","Display name":"Boris Bosiljcic"}},{"geometry":{"coordinates":[16.2831064,48.2199409],"type":"Point"},"id":1206,"type":"Feature","properties":{"UID":1206,"Latitude":48.2199409,"Longitude":16.2831064,"Link":"http://2015.drupalcamp.at/user/1206","Display name":"Wilhelm Guggenberger"}},{"geometry":{"coordinates":[16.4295803,48.2541620999999],"type":"Point"},"id":1196,"type":"Feature","properties":{"UID":1196,"Latitude":48.2541620999999,"Longitude":16.4295803,"Link":"http://2015.drupalcamp.at/user/1196","Display name":"Joe Schwabl"}},{"geometry":{"coordinates":[14.550072,47.516231],"type":"Point"},"id":1191,"type":"Feature","properties":{"UID":1191,"Latitude":47.516231,"Longitude":14.550072,"Link":"http://2015.drupalcamp.at/user/1191","Display name":"Markus Panholzer"}},{"geometry":{"coordinates":[14.550072,47.516231],"type":"Point"},"id":1186,"type":"Feature","properties":{"UID":1186,"Latitude":47.516231,"Longitude":14.550072,"Link":"http://2015.drupalcamp.at/user/1186","Display name":"Manfred Zlamala"}},{"geometry":{"coordinates":[31.16558,48.379433],"type":"Point"},"id":1181,"type":"Feature","properties":{"UID":1181,"Latitude":48.379433,"Longitude":31.16558,"Link":"http://2015.drupalcamp.at/user/1181","Display name":"Oleksandr Milkovskyi"}},{"geometry":{"coordinates":[16.4295803,48.2541620999999],"type":"Point"},"id":1176,"type":"Feature","properties":{"UID":1176,"Latitude":48.2541620999999,"Longitude":16.4295803,"Link":"http://2015.drupalcamp.at/user/1176","Display name":"Stephan Pichler"}},{"geometry":{"coordinates":[16.5040175,49.2348484],"type":"Point"},"id":1171,"type":"Feature","properties":{"UID":1171,"Latitude":49.2348484,"Longitude":16.5040175,"Link":"http://2015.drupalcamp.at/user/1171","Display name":"Jan Polzer"}},{"geometry":{"coordinates":[16.4295803,48.2541620999999],"type":"Point"},"id":1161,"type":"Feature","properties":{"UID":1161,"Latitude":48.2541620999999,"Longitude":16.4295803,"Link":"http://2015.drupalcamp.at/user/1161","Display name":"Maximilian Uhl"}},{"geometry":{"coordinates":[16.4295803,48.2541620999999],"type":"Point"},"id":1156,"type":"Feature","properties":{"UID":1156,"Latitude":48.2541620999999,"Longitude":16.4295803,"Link":"http://2015.drupalcamp.at/user/1156","Display name":"Bernhard Uhl"}},{"geometry":{"coordinates":[14.550072,47.516231],"type":"Point"},"id":1151,"type":"Feature","properties":{"UID":1151,"Latitude":47.516231,"Longitude":14.550072,"Link":"http://2015.drupalcamp.at/user/1151","Display name":"Dominik Svatos"}},{"geometry":{"coordinates":[16.4295803,48.2541620999999],"type":"Point"},"id":1146,"type":"Feature","properties":{"UID":1146,"Latitude":48.2541620999999,"Longitude":16.4295803,"Link":"http://2015.drupalcamp.at/user/1146","Display name":"Gue Dressel"}},{"geometry":{"coordinates":[21.2618872,48.7134489],"type":"Point"},"id":1141,"type":"Feature","properties":{"UID":1141,"Latitude":48.7134489,"Longitude":21.2618872,"Link":"http://2015.drupalcamp.at/user/1141","Display name":"Marian Murin"}},{"geometry":{"coordinates":[16.4504452,48.1933523],"type":"Point"},"id":1136,"type":"Feature","properties":{"UID":1136,"Latitude":48.1933523,"Longitude":16.4504452,"Link":"http://2015.drupalcamp.at/user/1136","Display name":"Markus Piribauer"}},{"geometry":{"coordinates":[8.6285365,49.8776346999999],"type":"Point"},"id":1131,"type":"Feature","properties":{"UID":1131,"Latitude":49.8776346999999,"Longitude":8.6285365,"Link":"http://2015.drupalcamp.at/user/1131","Display name":"Daniel Andrisek"}},{"geometry":{"coordinates":[17.1071373,48.1458923],"type":"Point"},"id":1121,"type":"Feature","properties":{"UID":1121,"Latitude":48.1458923,"Longitude":17.1071373,"Link":"http://2015.drupalcamp.at/user/1121","Display name":"David Lukac"}},{"geometry":{"coordinates":[15.454803,47.0743531],"type":"Point"},"id":1111,"type":"Feature","properties":{"UID":1111,"Latitude":47.0743531,"Longitude":15.454803,"Link":"http://2015.drupalcamp.at/user/1111","Display name":"Christoph Potzinger"}},{"geometry":{"coordinates":[11.4182424,53.6247045],"type":"Point"},"id":1106,"type":"Feature","properties":{"UID":1106,"Latitude":53.6247045,"Longitude":11.4182424,"Link":"http://2015.drupalcamp.at/user/1106","Display name":"Christian Kipke"}},{"geometry":{"coordinates":[11.4182424,53.6247045],"type":"Point"},"id":1096,"type":"Feature","properties":{"UID":1096,"Latitude":53.6247045,"Longitude":11.4182424,"Link":"http://2015.drupalcamp.at/user/1096","Display name":"Sebastian Hacker"}},{"geometry":{"coordinates":[7.4102839,47.181566],"type":"Point"},"id":1081,"type":"Feature","properties":{"UID":1081,"Latitude":47.181566,"Longitude":7.4102839,"Link":"http://2015.drupalcamp.at/user/1081","Display name":"Jan Sedlacek"}},{"geometry":{"coordinates":[13.0029274,47.7926466],"type":"Point"},"id":1066,"type":"Feature","properties":{"UID":1066,"Latitude":47.7926466,"Longitude":13.0029274,"Link":"http://2015.drupalcamp.at/user/1066","Display name":"Hans-Georg Beyer"}},{"geometry":{"coordinates":[16.3388962,48.201466],"type":"Point"},"id":1056,"type":"Feature","properties":{"UID":1056,"Latitude":48.201466,"Longitude":16.3388962,"Link":"http://2015.drupalcamp.at/user/1056","Display name":"Thomas Teufel"}},{"geometry":{"coordinates":[13.5969835,45.5147684],"type":"Point"},"id":1051,"type":"Feature","properties":{"UID":1051,"Latitude":45.5147684,"Longitude":13.5969835,"Link":"http://2015.drupalcamp.at/user/1051","Display name":"Janez Urevc"}},{"geometry":{"coordinates":[8.32476329999999,47.2885746],"type":"Point"},"id":1046,"type":"Feature","properties":{"UID":1046,"Latitude":47.2885746,"Longitude":8.32476329999999,"Link":"http://2015.drupalcamp.at/user/1046","Display name":"Matthias Walti"}},{"geometry":{"coordinates":[30.512322,50.588339],"type":"Point"},"id":1036,"type":"Feature","properties":{"UID":1036,"Latitude":50.588339,"Longitude":30.512322,"Link":"http://2015.drupalcamp.at/user/1036","Display name":"Dennis Povshedny"}},{"geometry":{"coordinates":[9.94260729999999,53.5488885],"type":"Point"},"id":1031,"type":"Feature","properties":{"UID":1031,"Latitude":53.5488885,"Longitude":9.94260729999999,"Link":"http://2015.drupalcamp.at/user/1031","Display name":"Werner Hillenbrand"}},{"geometry":{"coordinates":[8.22751199999999,46.818188],"type":"Point"},"id":1026,"type":"Feature","properties":{"UID":1026,"Latitude":46.818188,"Longitude":8.22751199999999,"Link":"http://2015.drupalcamp.at/user/1026","Display name":"Daniele Nicastro"}},{"geometry":{"coordinates":[8.0545713,47.3925353],"type":"Point"},"id":1016,"type":"Feature","properties":{"UID":1016,"Latitude":47.3925353,"Longitude":8.0545713,"Link":"http://2015.drupalcamp.at/user/1016","Display name":"Remo Keller"}},{"geometry":{"coordinates":[8.22751199999999,46.818188],"type":"Point"},"id":1011,"type":"Feature","properties":{"UID":1011,"Latitude":46.818188,"Longitude":8.22751199999999,"Link":"http://2015.drupalcamp.at/user/1011","Display name":"Ray Werngren"}},{"geometry":{"coordinates":[8.0545713,47.3925353],"type":"Point"},"id":1006,"type":"Feature","properties":{"UID":1006,"Latitude":47.3925353,"Longitude":8.0545713,"Link":"http://2015.drupalcamp.at/user/1006","Display name":"Thomas Werthmüller"}},{"geometry":{"coordinates":[8.0545713,47.3925353],"type":"Point"},"id":1001,"type":"Feature","properties":{"UID":1001,"Latitude":47.3925353,"Longitude":8.0545713,"Link":"http://2015.drupalcamp.at/user/1001","Display name":"Roger Wernli"}},{"geometry":{"coordinates":[8.0545713,47.3925353],"type":"Point"},"id":996,"type":"Feature","properties":{"UID":996,"Latitude":47.3925353,"Longitude":8.0545713,"Link":"http://2015.drupalcamp.at/user/996","Display name":"Jan Azzati"}},{"geometry":{"coordinates":[15.472962,49.8174919999999],"type":"Point"},"id":991,"type":"Feature","properties":{"UID":991,"Latitude":49.8174919999999,"Longitude":15.472962,"Link":"http://2015.drupalcamp.at/user/991","Display name":"Petr Parimucha"}},{"geometry":{"coordinates":[21.005859,44.016521],"type":"Point"},"id":986,"type":"Feature","properties":{"UID":986,"Latitude":44.016521,"Longitude":21.005859,"Link":"http://2015.drupalcamp.at/user/986","Display name":"Bojan Živanović"}},{"geometry":{"coordinates":[19.236921,47.4291969999999],"type":"Point"},"id":981,"type":"Feature","properties":{"UID":981,"Latitude":47.4291969999999,"Longitude":19.236921,"Link":"http://2015.drupalcamp.at/user/981","Display name":"Andrey Pshenichny"}},{"geometry":{"coordinates":[3.6798072,51.1334524],"type":"Point"},"id":966,"type":"Feature","properties":{"UID":966,"Latitude":51.1334524,"Longitude":3.6798072,"Link":"http://2015.drupalcamp.at/user/966","Display name":"Kristof Van Tomme"}},{"geometry":{"coordinates":[14.550072,47.516231],"type":"Point"},"id":961,"type":"Feature","properties":{"UID":961,"Latitude":47.516231,"Longitude":14.550072,"Link":"http://2015.drupalcamp.at/user/961","Display name":"Christian Filzwieser"}},{"geometry":{"coordinates":[14.550072,47.516231],"type":"Point"},"id":941,"type":"Feature","properties":{"UID":941,"Latitude":47.516231,"Longitude":14.550072,"Link":"http://2015.drupalcamp.at/user/941","Display name":"Philipp Tod"}},{"geometry":{"coordinates":[5.29126599999999,52.132633],"type":"Point"},"id":931,"type":"Feature","properties":{"UID":931,"Latitude":52.132633,"Longitude":5.29126599999999,"Link":"http://2015.drupalcamp.at/user/931","Display name":"Bart Feenstra"}},{"geometry":{"coordinates":[16.3738189,48.2081743],"type":"Point"},"id":921,"type":"Feature","properties":{"UID":921,"Latitude":48.2081743,"Longitude":16.3738189,"Link":"http://2015.drupalcamp.at/user/921","Display name":"Gabriele Höfler"}},{"geometry":{"coordinates":[10.8993532,48.3450075],"type":"Point"},"id":916,"type":"Feature","properties":{"UID":916,"Latitude":48.3450075,"Longitude":10.8993532,"Link":"http://2015.drupalcamp.at/user/916","Display name":"Chris Jolly"}},{"geometry":{"coordinates":[8.22751199999999,46.818188],"type":"Point"},"id":906,"type":"Feature","properties":{"UID":906,"Latitude":46.818188,"Longitude":8.22751199999999,"Link":"http://2015.drupalcamp.at/user/906","Display name":"Florian Loretan"}},{"geometry":{"coordinates":[3.552104,51.4877611],"type":"Point"},"id":901,"type":"Feature","properties":{"UID":901,"Latitude":51.4877611,"Longitude":3.552104,"Link":"http://2015.drupalcamp.at/user/901","Display name":"Chris Jansen"}},{"geometry":{"coordinates":[8.22751199999999,46.818188],"type":"Point"},"id":896,"type":"Feature","properties":{"UID":896,"Latitude":46.818188,"Longitude":8.22751199999999,"Link":"http://2015.drupalcamp.at/user/896","Display name":"Claudine Braendle"}},{"geometry":{"coordinates":[16.3760817,48.1851249],"type":"Point"},"id":886,"type":"Feature","properties":{"UID":886,"Latitude":48.1851249,"Longitude":16.3760817,"Link":"http://2015.drupalcamp.at/user/886","Display name":"Daniel Laxar"}},{"geometry":{"coordinates":[14.550072,47.516231],"type":"Point"},"id":877,"type":"Feature","properties":{"UID":877,"Latitude":47.516231,"Longitude":14.550072,"Link":"http://2015.drupalcamp.at/user/877","Display name":"Sebastian Siemssen"}},{"geometry":{"coordinates":[20.4673791,44.8064043],"type":"Point"},"id":876,"type":"Feature","properties":{"UID":876,"Latitude":44.8064043,"Longitude":20.4673791,"Link":"http://2015.drupalcamp.at/user/876","Display name":"Goran Kamberi"}},{"geometry":{"coordinates":[16.3359792,48.2747156999999],"type":"Point"},"id":871,"type":"Feature","properties":{"UID":871,"Latitude":48.2747156999999,"Longitude":16.3359792,"Link":"http://2015.drupalcamp.at/user/871","Display name":"Alexander Berner"}},{"geometry":{"coordinates":[12.0998008,54.032685],"type":"Point"},"id":866,"type":"Feature","properties":{"UID":866,"Latitude":54.032685,"Longitude":12.0998008,"Link":"http://2015.drupalcamp.at/user/866","Display name":"Marc Dinse"}},{"geometry":{"coordinates":[8.22751199999999,46.818188],"type":"Point"},"id":856,"type":"Feature","properties":{"UID":856,"Latitude":46.818188,"Longitude":8.22751199999999,"Link":"http://2015.drupalcamp.at/user/856","Display name":"Fabian Bircher"}},{"geometry":{"coordinates":[10.451526,51.165691],"type":"Point"},"id":851,"type":"Feature","properties":{"UID":851,"Latitude":51.165691,"Longitude":10.451526,"Link":"http://2015.drupalcamp.at/user/851","Display name":"Stephan Grundner"}},{"geometry":{"coordinates":[10.451526,51.165691],"type":"Point"},"id":846,"type":"Feature","properties":{"UID":846,"Latitude":51.165691,"Longitude":10.451526,"Link":"http://2015.drupalcamp.at/user/846","Display name":"Bernhard Fesch"}},{"geometry":{"coordinates":[10.451526,51.165691],"type":"Point"},"id":841,"type":"Feature","properties":{"UID":841,"Latitude":51.165691,"Longitude":10.451526,"Link":"http://2015.drupalcamp.at/user/841","Display name":"Karen Falck"}},{"geometry":{"coordinates":[17.0009676,51.0623849],"type":"Point"},"id":836,"type":"Feature","properties":{"UID":836,"Latitude":51.0623849,"Longitude":17.0009676,"Link":"http://2015.drupalcamp.at/user/836","Display name":"Karol Bryksa"}},{"geometry":{"coordinates":[14.324326,46.6499635],"type":"Point"},"id":831,"type":"Feature","properties":{"UID":831,"Latitude":46.6499635,"Longitude":14.324326,"Link":"http://2015.drupalcamp.at/user/831","Display name":"Patric Petscher"}},{"geometry":{"coordinates":[16.3312162,48.2365746],"type":"Point"},"id":826,"type":"Feature","properties":{"UID":826,"Latitude":48.2365746,"Longitude":16.3312162,"Link":"http://2015.drupalcamp.at/user/826","Display name":"Wolfgang Bereuter"}},{"geometry":{"coordinates":[11.5382059,48.1359615999999],"type":"Point"},"id":821,"type":"Feature","properties":{"UID":821,"Latitude":48.1359615999999,"Longitude":11.5382059,"Link":"http://2015.drupalcamp.at/user/821","Display name":"Floh K."}},{"geometry":{"coordinates":[4.3596911,50.8435865999999],"type":"Point"},"id":816,"type":"Feature","properties":{"UID":816,"Latitude":50.8435865999999,"Longitude":4.3596911,"Link":"http://2015.drupalcamp.at/user/816","Display name":"Montaña Franco"}},{"geometry":{"coordinates":[19.040235,47.497912],"type":"Point"},"id":811,"type":"Feature","properties":{"UID":811,"Latitude":47.497912,"Longitude":19.040235,"Link":"http://2015.drupalcamp.at/user/811","Display name":"Balazs Dianiska"}},{"geometry":{"coordinates":[15.8847136,45.7995507],"type":"Point"},"id":806,"type":"Feature","properties":{"UID":806,"Latitude":45.7995507,"Longitude":15.8847136,"Link":"http://2015.drupalcamp.at/user/806","Display name":"Kristijan Lukacin"}},{"geometry":{"coordinates":[15.8847136,45.7995507],"type":"Point"},"id":766,"type":"Feature","properties":{"UID":766,"Latitude":45.7995507,"Longitude":15.8847136,"Link":"http://2015.drupalcamp.at/user/766","Display name":"Tamer Zoubi"}},{"geometry":{"coordinates":[4.8951679,52.3702157],"type":"Point"},"id":731,"type":"Feature","properties":{"UID":731,"Latitude":52.3702157,"Longitude":4.8951679,"Link":"http://2015.drupalcamp.at/user/731","Display name":"ifrik ."}},{"geometry":{"coordinates":[5.29126599999999,52.132633],"type":"Point"},"id":726,"type":"Feature","properties":{"UID":726,"Latitude":52.132633,"Longitude":5.29126599999999,"Link":"http://2015.drupalcamp.at/user/726","Display name":"ekes zwarte"}},{"geometry":{"coordinates":[4.469936,50.503887],"type":"Point"},"id":721,"type":"Feature","properties":{"UID":721,"Latitude":50.503887,"Longitude":4.469936,"Link":"http://2015.drupalcamp.at/user/721","Display name":"Joris Vercammen"}},{"geometry":{"coordinates":[19.503304,47.162494],"type":"Point"},"id":716,"type":"Feature","properties":{"UID":716,"Latitude":47.162494,"Longitude":19.503304,"Link":"http://2015.drupalcamp.at/user/716","Display name":"Gábor Hojtsy"}},{"geometry":{"coordinates":[4.469936,50.503887],"type":"Point"},"id":706,"type":"Feature","properties":{"UID":706,"Latitude":50.503887,"Longitude":4.469936,"Link":"http://2015.drupalcamp.at/user/706","Display name":"Kristof De Jaeger"}},{"geometry":{"coordinates":[18.643501,60.128161],"type":"Point"},"id":696,"type":"Feature","properties":{"UID":696,"Latitude":60.128161,"Longitude":18.643501,"Link":"http://2015.drupalcamp.at/user/696","Display name":"Ruben Teijeiro"}},{"geometry":{"coordinates":[16.3738189,48.2081743],"type":"Point"},"id":646,"type":"Feature","properties":{"UID":646,"Latitude":48.2081743,"Longitude":16.3738189,"Link":"http://2015.drupalcamp.at/user/646","Display name":"Bernhard Schussek"}},{"geometry":{"coordinates":[16.2145975,48.2088091],"type":"Point"},"id":641,"type":"Feature","properties":{"UID":641,"Latitude":48.2088091,"Longitude":16.2145975,"Link":"http://2015.drupalcamp.at/user/641","Display name":"Christian Meilinger"}},{"geometry":{"coordinates":[19.040235,47.497912],"type":"Point"},"id":626,"type":"Feature","properties":{"UID":626,"Latitude":47.497912,"Longitude":19.040235,"Link":"http://2015.drupalcamp.at/user/626","Display name":"Zsófi Major"}},{"geometry":{"coordinates":[11.4671996,49.2772606],"type":"Point"},"id":616,"type":"Feature","properties":{"UID":616,"Latitude":49.2772606,"Longitude":11.4671996,"Link":"http://2015.drupalcamp.at/user/616","Display name":"Florian Dünkel"}},{"geometry":{"coordinates":[5.29126599999999,52.132633],"type":"Point"},"id":611,"type":"Feature","properties":{"UID":611,"Latitude":52.132633,"Longitude":5.29126599999999,"Link":"http://2015.drupalcamp.at/user/611","Display name":"Bojhan Somers"}},{"geometry":{"coordinates":[16.3838017,48.1950513],"type":"Point"},"id":556,"type":"Feature","properties":{"UID":556,"Latitude":48.1950513,"Longitude":16.3838017,"Link":"http://2015.drupalcamp.at/user/556","Display name":"Wolfgang Leitner"}},{"geometry":{"coordinates":[16.2145975,48.2088091],"type":"Point"},"id":116,"type":"Feature","properties":{"UID":116,"Latitude":48.2088091,"Longitude":16.2145975,"Link":"http://2015.drupalcamp.at/user/116","Display name":"Klaus Purer"}},{"geometry":{"coordinates":[16.4295803,48.2541620999999],"type":"Point"},"id":97,"type":"Feature","properties":{"UID":97,"Latitude":48.2541620999999,"Longitude":16.4295803,"Link":"http://2015.drupalcamp.at/user/97","Display name":"Wolfgang Ziegler"}},{"geometry":{"coordinates":[16.3388962,48.201466],"type":"Point"},"id":90,"type":"Feature","properties":{"UID":90,"Latitude":48.201466,"Longitude":16.3388962,"Link":"http://2015.drupalcamp.at/user/90","Display name":"Oliver Köhler"}},{"geometry":{"coordinates":[16.3312162,48.2365746],"type":"Point"},"id":12,"type":"Feature","properties":{"UID":12,"Latitude":48.2365746,"Longitude":16.3312162,"Link":"http://2015.drupalcamp.at/user/12","Display name":"Christian Ziegler"}},{"geometry":{"coordinates":[8.51451799999999,47.392784],"type":"Point"},"id":11,"type":"Feature","properties":{"UID":11,"Latitude":47.392784,"Longitude":8.51451799999999,"Link":"http://2015.drupalcamp.at/user/11","Display name":"Josef Dabernig"}},{"geometry":{"coordinates":[16.3760817,48.1851249],"type":"Point"},"id":10,"type":"Feature","properties":{"UID":10,"Latitude":48.1851249,"Longitude":16.3760817,"Link":"http://2015.drupalcamp.at/user/10","Display name":"Jeremy Chinquist"}},{"geometry":{"coordinates":[16.3388962,48.201466],"type":"Point"},"id":8,"type":"Feature","properties":{"UID":8,"Latitude":48.201466,"Longitude":16.3388962,"Link":"http://2015.drupalcamp.at/user/8","Display name":"Nico Grienauer"}},{"geometry":{"coordinates":[16.3388962,48.201466],"type":"Point"},"id":1,"type":"Feature","properties":{"UID":1,"Latitude":48.201466,"Longitude":16.3388962,"Link":"http://2015.drupalcamp.at/user/1","Display name":"Michael Klobutschar"}}]}